{"type":"FeatureCollection","features":[{"type":"Feature","properties":{" poi_name":"Ahinav Education Society School"," street_name":"No. 6"," street_type":"Road"," contact_info":"","Website":""," postal_code":400066," up3_admin_name":"Maharashtra","up2_admin_name":"Mumbai Suburban","up1_admin_name":"Mumbai","settlement":"Borivali East"},"geometry":{"type":"Point","coordinates":[72.870325,19.230544]}},{"type":"Feature","properties":{" poi_name":"BMC Urdu School"," street_name":"Kasturba Cross No 2"," street_type":"Road"," contact_info":"","Website":""," postal_code":400066," up3_admin_name":"Maharashtra","up2_admin_name":"Mumbai Suburban","up1_admin_name":"Mumbai","settlement":"Borivali East"},"geometry":{"type":"Point","coordinates":[72.859429,19.227057]}},{"type":"Feature","properties":{" poi_name":"Bharat Jatiya Vidya Mandir"," street_name":""," street_type":""," contact_info":"","Website":""," postal_code":400066," up3_admin_name":"Maharashtra","up2_admin_name":"Mumbai Suburban","up1_admin_name":"Mumbai","settlement":"Borivali East"},"geometry":{"type":"Point","coordinates":[72.862166,19.23671]}},{"type":"Feature","properties":{" poi_name":"Bruhanmumbai M C Dattapada School"," street_name":"Dattapada"," street_type":"Road"," contact_info":"","Website":""," postal_code":400066," up3_admin_name":"Maharashtra","up2_admin_name":"Mumbai Suburban","up1_admin_name":"Mumbai","settlement":"Borivali East"},"geometry":{"type":"Point","coordinates":[72.859815,19.223917]}},{"type":"Feature","properties":{" poi_name":"Cosmos High School"," street_name":"Sant Ramdas Swami"," street_type":"Marg"," contact_info":"22-28975924","Website":""," postal_code":400066," up3_admin_name":"Maharashtra","up2_admin_name":"Mumbai Suburban","up1_admin_name":"Mumbai","settlement":"Borivali East"},"geometry":{"type":"Point","coordinates":[72.868253,19.236467]}},{"type":"Feature","properties":{" poi_name":"Dattapada Gujarati School"," street_name":"Dattapada"," street_type":"Road"," contact_info":"","Website":""," postal_code":400066," up3_admin_name":"Maharashtra","up2_admin_name":"Mumbai Suburban","up1_admin_name":"Mumbai","settlement":"Borivali East"},"geometry":{"type":"Point","coordinates":[72.859818,19.223898]}},{"type":"Feature","properties":{" poi_name":"Dattapada Hindi School"," street_name":"Dattapada"," street_type":"Road"," contact_info":"","Website":""," postal_code":400066," up3_admin_name":"Maharashtra","up2_admin_name":"Mumbai Suburban","up1_admin_name":"Mumbai","settlement":"Borivali East"},"geometry":{"type":"Point","coordinates":[72.859818,19.223898]}},{"type":"Feature","properties":{" poi_name":"Dattapada Marathi School"," street_name":"Dattapada"," street_type":"Road"," contact_info":"","Website":""," postal_code":400066," up3_admin_name":"Maharashtra","up2_admin_name":"Mumbai Suburban","up1_admin_name":"Mumbai","settlement":"Borivali East"},"geometry":{"type":"Point","coordinates":[72.859818,19.223898]}},{"type":"Feature","properties":{" poi_name":"Divine Ark School"," street_name":""," street_type":""," contact_info":"22-28978017, 98191-40029","Website":""," postal_code":400066," up3_admin_name":"Maharashtra","up2_admin_name":"Mumbai Suburban","up1_admin_name":"Mumbai","settlement":"Borivali East"},"geometry":{"type":"Point","coordinates":[72.865684,19.234293]}},{"type":"Feature","properties":{" poi_name":"Kids Kutir"," street_name":"Kasturba Cross No 7"," street_type":"Road"," contact_info":"22-28064769, 98212-13894","Website":""," postal_code":400066," up3_admin_name":"Maharashtra","up2_admin_name":"Mumbai Suburban","up1_admin_name":"Mumbai","settlement":"Borivali East"},"geometry":{"type":"Point","coordinates":[72.858702,19.229814]}},{"type":"Feature","properties":{" poi_name":"Lion Juhu Ku Sudha V Patel Gujarati Balmandir"," street_name":""," street_type":""," contact_info":"","Website":""," postal_code":400066," up3_admin_name":"Maharashtra","up2_admin_name":"Mumbai Suburban","up1_admin_name":"Mumbai","settlement":"Borivali East"},"geometry":{"type":"Point","coordinates":[72.858839,19.232252]}},{"type":"Feature","properties":{" poi_name":"Magathane BMC Marathi School No-2"," street_name":"Jai Maharashtra Nagar No 1"," street_type":"Road"," contact_info":"","Website":""," postal_code":400066," up3_admin_name":"Maharashtra","up2_admin_name":"Mumbai Suburban","up1_admin_name":"Mumbai","settlement":"Borivali East"},"geometry":{"type":"Point","coordinates":[72.867581,19.219531]}},{"type":"Feature","properties":{" poi_name":"Magathane BMC Marathi School No1"," street_name":""," street_type":""," contact_info":"","Website":""," postal_code":400066," up3_admin_name":"Maharashtra","up2_admin_name":"Mumbai Suburban","up1_admin_name":"Mumbai","settlement":"Borivali East"},"geometry":{"type":"Point","coordinates":[72.86793,19.219798]}},{"type":"Feature","properties":{" poi_name":"Manas Junior College of Commerce"," street_name":"Dattapada"," street_type":"Road"," contact_info":"22-28542740","Website":""," postal_code":400066," up3_admin_name":"Maharashtra","up2_admin_name":"Mumbai Suburban","up1_admin_name":"Mumbai","settlement":"Borivali East"},"geometry":{"type":"Point","coordinates":[72.859818,19.223898]}},{"type":"Feature","properties":{" poi_name":"Mangubhai Dattani Vidyalaya"," street_name":"Kulupwadi"," street_type":"Road"," contact_info":"","Website":""," postal_code":400066," up3_admin_name":"Maharashtra","up2_admin_name":"Mumbai Suburban","up1_admin_name":"Mumbai","settlement":"Borivali East"},"geometry":{"type":"Point","coordinates":[72.865565,19.223249]}},{"type":"Feature","properties":{" poi_name":"Matushri J G Dattani Balmandir"," street_name":""," street_type":""," contact_info":"","Website":""," postal_code":400066," up3_admin_name":"Maharashtra","up2_admin_name":"Mumbai Suburban","up1_admin_name":"Mumbai","settlement":"Borivali East"},"geometry":{"type":"Point","coordinates":[72.858839,19.232252]}},{"type":"Feature","properties":{" poi_name":"Matushri Velbai Velji Gala Primary School"," street_name":""," street_type":""," contact_info":"","Website":""," postal_code":400066," up3_admin_name":"Maharashtra","up2_admin_name":"Mumbai Suburban","up1_admin_name":"Mumbai","settlement":"Borivali East"},"geometry":{"type":"Point","coordinates":[72.858839,19.232252]}},{"type":"Feature","properties":{" poi_name":"Nalanda English High School"," street_name":""," street_type":""," contact_info":"22-28052949","Website":""," postal_code":400066," up3_admin_name":"Maharashtra","up2_admin_name":"Mumbai Suburban","up1_admin_name":"Mumbai","settlement":"Borivali East"},"geometry":{"type":"Point","coordinates":[72.858428,19.218269]}},{"type":"Feature","properties":{" poi_name":"Nalanda Night School"," street_name":"Dattapada"," street_type":"Road"," contact_info":"","Website":""," postal_code":400066," up3_admin_name":"Maharashtra","up2_admin_name":"Mumbai Suburban","up1_admin_name":"Mumbai","settlement":"Borivali East"},"geometry":{"type":"Point","coordinates":[72.859815,19.223917]}},{"type":"Feature","properties":{" poi_name":"Peridot International Academy Nursery"," street_name":""," street_type":""," contact_info":"","Website":""," postal_code":400066," up3_admin_name":"Maharashtra","up2_admin_name":"Mumbai Suburban","up1_admin_name":"Mumbai","settlement":"Borivali East"},"geometry":{"type":"Point","coordinates":[72.858839,19.232252]}},{"type":"Feature","properties":{" poi_name":"R C Patel High School"," street_name":""," street_type":""," contact_info":"","Website":""," postal_code":400066," up3_admin_name":"Maharashtra","up2_admin_name":"Mumbai Suburban","up1_admin_name":"Mumbai","settlement":"Borivali East"},"geometry":{"type":"Point","coordinates":[72.858839,19.232252]}},{"type":"Feature","properties":{" poi_name":"Rajendra Nagar School BMC School"," street_name":""," street_type":""," contact_info":"","Website":""," postal_code":400066," up3_admin_name":"Maharashtra","up2_admin_name":"Mumbai Suburban","up1_admin_name":"Mumbai","settlement":"Borivali East"},"geometry":{"type":"Point","coordinates":[72.857508,19.220182]}},{"type":"Feature","properties":{" poi_name":"Ramkrishna High School"," street_name":""," street_type":""," contact_info":"22-28975571","Website":""," postal_code":400066," up3_admin_name":"Maharashtra","up2_admin_name":"Mumbai Suburban","up1_admin_name":"Mumbai","settlement":"Borivali East"},"geometry":{"type":"Point","coordinates":[72.871205,19.236742]}},{"type":"Feature","properties":{" poi_name":"Rutav Nursery"," street_name":"Kasturba Cross No 5"," street_type":"Road"," contact_info":"22-28058081","Website":""," postal_code":400066," up3_admin_name":"Maharashtra","up2_admin_name":"Mumbai Suburban","up1_admin_name":"Mumbai","settlement":"Borivali East"},"geometry":{"type":"Point","coordinates":[72.862381,19.229535]}},{"type":"Feature","properties":{" poi_name":"SMT Jayaben Khot High School"," street_name":"Dattapada"," street_type":"Road"," contact_info":"","Website":""," postal_code":400066," up3_admin_name":"Maharashtra","up2_admin_name":"Mumbai Suburban","up1_admin_name":"Mumbai","settlement":"Borivali East"},"geometry":{"type":"Point","coordinates":[72.859945,19.222123]}},{"type":"Feature","properties":{" poi_name":"Sai Shishu Mandir"," street_name":"Sant Eknath"," street_type":"Marg"," contact_info":"","Website":""," postal_code":400066," up3_admin_name":"Maharashtra","up2_admin_name":"Mumbai Suburban","up1_admin_name":"Mumbai","settlement":"Borivali East"},"geometry":{"type":"Point","coordinates":[72.86472,19.238531]}},{"type":"Feature","properties":{" poi_name":"Setha Bhajanlal Rohra English School"," street_name":""," street_type":""," contact_info":"","Website":""," postal_code":400066," up3_admin_name":"Maharashtra","up2_admin_name":"Mumbai Suburban","up1_admin_name":"Mumbai","settlement":"Borivali East"},"geometry":{"type":"Point","coordinates":[72.862166,19.23671]}},{"type":"Feature","properties":{" poi_name":"Setha Doulatram Mohandas High School"," street_name":""," street_type":""," contact_info":"","Website":""," postal_code":400066," up3_admin_name":"Maharashtra","up2_admin_name":"Mumbai Suburban","up1_admin_name":"Mumbai","settlement":"Borivali East"},"geometry":{"type":"Point","coordinates":[72.862166,19.23671]}},{"type":"Feature","properties":{" poi_name":"Sheth G H Junior College of Commerce"," street_name":""," street_type":""," contact_info":"","Website":""," postal_code":400066," up3_admin_name":"Maharashtra","up2_admin_name":"Mumbai Suburban","up1_admin_name":"Mumbai","settlement":"Borivali East"},"geometry":{"type":"Point","coordinates":[72.858839,19.232252]}},{"type":"Feature","properties":{" poi_name":"Sheth Gopali Hemraj High School & Junior College"," street_name":""," street_type":""," contact_info":"","Website":""," postal_code":400066," up3_admin_name":"Maharashtra","up2_admin_name":"Mumbai Suburban","up1_admin_name":"Mumbai","settlement":"Borivali East"},"geometry":{"type":"Point","coordinates":[72.858779,19.232504]}},{"type":"Feature","properties":{" poi_name":"Sheth Gopalji Hemraj High School"," street_name":""," street_type":""," contact_info":"22-28991088","Website":""," postal_code":400066," up3_admin_name":"Maharashtra","up2_admin_name":"Mumbai Suburban","up1_admin_name":"Mumbai","settlement":"Borivali East"},"geometry":{"type":"Point","coordinates":[72.858831,19.232285]}},{"type":"Feature","properties":{" poi_name":"Sheth Jadhavaji Jethabhai Pri School"," street_name":""," street_type":""," contact_info":"","Website":""," postal_code":400066," up3_admin_name":"Maharashtra","up2_admin_name":"Mumbai Suburban","up1_admin_name":"Mumbai","settlement":"Borivali East"},"geometry":{"type":"Point","coordinates":[72.858795,19.232002]}},{"type":"Feature","properties":{" poi_name":"Sheth M K High School"," street_name":""," street_type":""," contact_info":"","Website":""," postal_code":400066," up3_admin_name":"Maharashtra","up2_admin_name":"Mumbai Suburban","up1_admin_name":"Mumbai","settlement":"Borivali East"},"geometry":{"type":"Point","coordinates":[72.858839,19.232252]}},{"type":"Feature","properties":{" poi_name":"Shir R G Bajaria English Medium Primary School"," street_name":""," street_type":""," contact_info":"","Website":""," postal_code":400066," up3_admin_name":"Maharashtra","up2_admin_name":"Mumbai Suburban","up1_admin_name":"Mumbai","settlement":"Borivali East"},"geometry":{"type":"Point","coordinates":[72.858779,19.232504]}},{"type":"Feature","properties":{" poi_name":"Shishu Kunj"," street_name":""," street_type":""," contact_info":"22-28704178","Website":""," postal_code":400066," up3_admin_name":"Maharashtra","up2_admin_name":"Mumbai Suburban","up1_admin_name":"Mumbai","settlement":"Borivali East"},"geometry":{"type":"Point","coordinates":[72.858667,19.224107]}},{"type":"Feature","properties":{" poi_name":"Shivseva English School"," street_name":""," street_type":""," contact_info":"","Website":""," postal_code":400066," up3_admin_name":"Maharashtra","up2_admin_name":"Mumbai Suburban","up1_admin_name":"Mumbai","settlement":"Borivali East"},"geometry":{"type":"Point","coordinates":[72.857152,19.221164]}},{"type":"Feature","properties":{" poi_name":"Shree Ratnachandraji Jain Vidya Mandir"," street_name":"No 9"," street_type":"Road"," contact_info":"","Website":""," postal_code":400066," up3_admin_name":"Maharashtra","up2_admin_name":"Mumbai Suburban","up1_admin_name":"Mumbai","settlement":"Borivali East"},"geometry":{"type":"Point","coordinates":[72.860822,19.234885]}},{"type":"Feature","properties":{" poi_name":"Sri Sri Ravishankar Vidya Mandir"," street_name":"Kulupwadi"," street_type":"Road"," contact_info":"22-28872351, 22-32223043","Website":""," postal_code":400066," up3_admin_name":"Maharashtra","up2_admin_name":"Mumbai Suburban","up1_admin_name":"Mumbai","settlement":"Borivali East"},"geometry":{"type":"Point","coordinates":[72.865409,19.228008]}},{"type":"Feature","properties":{" poi_name":"The Tree House Playgroup & Nursery"," street_name":"Kulupwadi"," street_type":"Road"," contact_info":"22-65197555","Website":""," postal_code":400066," up3_admin_name":"Maharashtra","up2_admin_name":"Mumbai Suburban","up1_admin_name":"Mumbai","settlement":"Borivali East"},"geometry":{"type":"Point","coordinates":[72.865375,19.228055]}},{"type":"Feature","properties":{" poi_name":"The Tree House"," street_name":"Dattapada"," street_type":"Road"," contact_info":"22-65279479","Website":""," postal_code":400066," up3_admin_name":"Maharashtra","up2_admin_name":"Mumbai Suburban","up1_admin_name":"Mumbai","settlement":"Borivali East"},"geometry":{"type":"Point","coordinates":[72.85987,19.223514]}},{"type":"Feature","properties":{" poi_name":"Trimurti High School"," street_name":"Jai Maharashtra"," street_type":"Road"," contact_info":"","Website":""," postal_code":400066," up3_admin_name":"Maharashtra","up2_admin_name":"Mumbai Suburban","up1_admin_name":"Mumbai","settlement":"Borivali East"},"geometry":{"type":"Point","coordinates":[72.87072,19.221799]}},{"type":"Feature","properties":{" poi_name":"Xavier Child Development Centre"," street_name":""," street_type":""," contact_info":"22-28918137","Website":""," postal_code":400066," up3_admin_name":"Maharashtra","up2_admin_name":"Mumbai Suburban","up1_admin_name":"Mumbai","settlement":"Borivali East"},"geometry":{"type":"Point","coordinates":[72.862085,19.236333]}},{"type":"Feature","properties":{" poi_name":"Yojana Junior College"," street_name":"Kulupwadi"," street_type":"Road"," contact_info":"","Website":""," postal_code":400066," up3_admin_name":"Maharashtra","up2_admin_name":"Mumbai Suburban","up1_admin_name":"Mumbai","settlement":"Borivali East"},"geometry":{"type":"Point","coordinates":[72.865565,19.223249]}},{"type":"Feature","properties":{" poi_name":"Buddy Buds"," street_name":"Daulat Nagar Road No 7"," street_type":""," contact_info":"98191-55119","Website":""," postal_code":400066," up3_admin_name":"Maharashtra","up2_admin_name":"Mumbai Suburban","up1_admin_name":"Mumbai","settlement":"Borivali East"},"geometry":{"type":"Point","coordinates":[72.859344,19.234212]}},{"type":"Feature","properties":{" poi_name":"I Play & Learn"," street_name":"Dattapada"," street_type":"Road"," contact_info":"99673-45800","Website":""," postal_code":400066," up3_admin_name":"Maharashtra","up2_admin_name":"Mumbai Suburban","up1_admin_name":"Mumbai","settlement":"Borivali East"},"geometry":{"type":"Point","coordinates":[72.859929,19.224174]}},{"type":"Feature","properties":{" poi_name":"Jijamata Balwadi"," street_name":""," street_type":""," contact_info":"","Website":""," postal_code":400066," up3_admin_name":"Maharashtra","up2_admin_name":"Mumbai Suburban","up1_admin_name":"Mumbai","settlement":"Borivali East"},"geometry":{"type":"Point","coordinates":[72.869924,19.234903]}},{"type":"Feature","properties":{" poi_name":"Prathamesh Nursery"," street_name":"Cross Rd number 3"," street_type":""," contact_info":"22-28975741","Website":""," postal_code":400066," up3_admin_name":"Maharashtra","up2_admin_name":"Mumbai Suburban","up1_admin_name":"Mumbai","settlement":"Borivali East"},"geometry":{"type":"Point","coordinates":[72.865715,19.233491]}},{"type":"Feature","properties":{" poi_name":"Ramkrishna Balmandir"," street_name":""," street_type":""," contact_info":"22-28975571","Website":""," postal_code":400066," up3_admin_name":"Maharashtra","up2_admin_name":"Mumbai Suburban","up1_admin_name":"Mumbai","settlement":"Borivali East"},"geometry":{"type":"Point","coordinates":[72.87036,19.236838]}},{"type":"Feature","properties":{" poi_name":"Aayushi Play Group & Nursery"," street_name":"Anandi Bai Kale"," street_type":"Road"," contact_info":"","Website":""," postal_code":400092," up3_admin_name":"Maharashtra","up2_admin_name":"Mumbai Suburban","up1_admin_name":"Mumbai","settlement":"Borivali West"},"geometry":{"type":"Point","coordinates":[72.844815,19.217557]}},{"type":"Feature","properties":{" poi_name":"Acharya Narendradev Vidya Mandir-Entrance 1"," street_name":""," street_type":""," contact_info":"","Website":""," postal_code":400092," up3_admin_name":"Maharashtra","up2_admin_name":"Mumbai Suburban","up1_admin_name":"Mumbai","settlement":"Borivali West"},"geometry":{"type":"Point","coordinates":[72.845709,19.228129]}},{"type":"Feature","properties":{" poi_name":"Achrya Narendra Vidyamandir"," street_name":""," street_type":""," contact_info":"22-28980124","Website":""," postal_code":400092," up3_admin_name":"Maharashtra","up2_admin_name":"Mumbai Suburban","up1_admin_name":"Mumbai","settlement":"Borivali West"},"geometry":{"type":"Point","coordinates":[72.845676,19.227932]}},{"type":"Feature","properties":{" poi_name":"Ajmera Global School"," street_name":""," street_type":""," contact_info":"","Website":""," postal_code":400092," up3_admin_name":"Maharashtra","up2_admin_name":"Mumbai Suburban","up1_admin_name":"Mumbai","settlement":"Borivali West"},"geometry":{"type":"Point","coordinates":[72.843351,19.237466]}},{"type":"Feature","properties":{" poi_name":"Anandibai Damodar Kale Vidyalaya"," street_name":""," street_type":""," contact_info":"22-28077126","Website":""," postal_code":400092," up3_admin_name":"Maharashtra","up2_admin_name":"Mumbai Suburban","up1_admin_name":"Mumbai","settlement":"Borivali West"},"geometry":{"type":"Point","coordinates":[72.84539,19.215243]}},{"type":"Feature","properties":{" poi_name":"Anandrao Pawar Vidyalaya"," street_name":"Amarkant Zha"," street_type":"Marg"," contact_info":"22-28981869","Website":""," postal_code":400092," up3_admin_name":"Maharashtra","up2_admin_name":"Mumbai Suburban","up1_admin_name":"Mumbai","settlement":"Borivali West"},"geometry":{"type":"Point","coordinates":[72.844318,19.227136]}},{"type":"Feature","properties":{" poi_name":"BMC Poisar School Borivali W"," street_name":"S V"," street_type":"Road"," contact_info":"","Website":""," postal_code":400092," up3_admin_name":"Maharashtra","up2_admin_name":"Mumbai Suburban","up1_admin_name":"Mumbai","settlement":"Borivali West"},"geometry":{"type":"Point","coordinates":[72.850991,19.21513]}},{"type":"Feature","properties":{" poi_name":"Believe"," street_name":""," street_type":""," contact_info":"98706-00260","Website":""," postal_code":400092," up3_admin_name":"Maharashtra","up2_admin_name":"Mumbai Suburban","up1_admin_name":"Mumbai","settlement":"Borivali West"},"geometry":{"type":"Point","coordinates":[72.836193,19.21986]}},{"type":"Feature","properties":{" poi_name":"Bima Nagar Education Society Junior College"," street_name":""," street_type":""," contact_info":"22-28931670","Website":""," postal_code":400103," up3_admin_name":"Maharashtra","up2_admin_name":"Mumbai Suburban","up1_admin_name":"Mumbai","settlement":"Borivali West"},"geometry":{"type":"Point","coordinates":[72.848698,19.242263]}},{"type":"Feature","properties":{" poi_name":"Borivali BMC Madyamik School"," street_name":"Umeda Ashram"," street_type":"Road"," contact_info":"","Website":""," postal_code":400092," up3_admin_name":"Maharashtra","up2_admin_name":"Mumbai Suburban","up1_admin_name":"Mumbai","settlement":"Borivali West"},"geometry":{"type":"Point","coordinates":[72.852716,19.22472]}},{"type":"Feature","properties":{" poi_name":"Bruhnmumbai Municipal School"," street_name":"Shimpoli"," street_type":"Marg"," contact_info":"","Website":""," postal_code":400092," up3_admin_name":"Maharashtra","up2_admin_name":"Mumbai Suburban","up1_admin_name":"Mumbai","settlement":"Borivali West"},"geometry":{"type":"Point","coordinates":[72.847818,19.228331]}},{"type":"Feature","properties":{" poi_name":"Cradle To Crayon Preschool"," street_name":"Rokadiya"," street_type":"Marg"," contact_info":"","Website":""," postal_code":400092," up3_admin_name":"Maharashtra","up2_admin_name":"Mumbai Suburban","up1_admin_name":"Mumbai","settlement":"Borivali West"},"geometry":{"type":"Point","coordinates":[72.856756,19.236221]}},{"type":"Feature","properties":{" poi_name":"Divineland and Pre Primary School"," street_name":""," street_type":""," contact_info":"22-28678791","Website":""," postal_code":400092," up3_admin_name":"Maharashtra","up2_admin_name":"Mumbai Suburban","up1_admin_name":"Mumbai","settlement":"Borivali West"},"geometry":{"type":"Point","coordinates":[72.827254,19.226319]}},{"type":"Feature","properties":{" poi_name":"Don Bosco High School"," street_name":"Chandawarkar"," street_type":"Road"," contact_info":"22-28330514","Website":""," postal_code":400092," up3_admin_name":"Maharashtra","up2_admin_name":"Mumbai Suburban","up1_admin_name":"Mumbai","settlement":"Borivali West"},"geometry":{"type":"Point","coordinates":[72.841763,19.230265]}},{"type":"Feature","properties":{" poi_name":"Dr Pillai Global Academy-Entrance 2"," street_name":""," street_type":""," contact_info":"22-28684464","Website":""," postal_code":400092," up3_admin_name":"Maharashtra","up2_admin_name":"Mumbai Suburban","up1_admin_name":"Mumbai","settlement":"Borivali West"},"geometry":{"type":"Point","coordinates":[72.825087,19.230087]}},{"type":"Feature","properties":{" poi_name":"Dr Pillai Global Academy"," street_name":""," street_type":""," contact_info":"22-28684467","Website":""," postal_code":400092," up3_admin_name":"Maharashtra","up2_admin_name":"Mumbai Suburban","up1_admin_name":"Mumbai","settlement":"Borivali West"},"geometry":{"type":"Point","coordinates":[72.825778,19.230513]}},{"type":"Feature","properties":{" poi_name":"Eksar Talepakhadi Municipal School"," street_name":"Eksar"," street_type":"Road"," contact_info":"","Website":""," postal_code":400103," up3_admin_name":"Maharashtra","up2_admin_name":"Mumbai Suburban","up1_admin_name":"Mumbai","settlement":"Borivali West"},"geometry":{"type":"Point","coordinates":[72.845364,19.237847]}},{"type":"Feature","properties":{" poi_name":"Fairyland Learning Redefined"," street_name":"S V"," street_type":"Road"," contact_info":"22-28092743","Website":""," postal_code":400092," up3_admin_name":"Maharashtra","up2_admin_name":"Mumbai Suburban","up1_admin_name":"Mumbai","settlement":"Borivali West"},"geometry":{"type":"Point","coordinates":[72.85123,19.217342]}},{"type":"Feature","properties":{" poi_name":"Harchand Lokhande Madhyamik School"," street_name":"L T"," street_type":"Road"," contact_info":"","Website":""," postal_code":400092," up3_admin_name":"Maharashtra","up2_admin_name":"Mumbai Suburban","up1_admin_name":"Mumbai","settlement":"Borivali West"},"geometry":{"type":"Point","coordinates":[72.838761,19.230569]}},{"type":"Feature","properties":{" poi_name":"Hello Kids-Nest"," street_name":"Dr Babasaheb Ambedkar"," street_type":"Marg"," contact_info":"72080-70653, 90290-24461","Website":"mh.nest@hellokids.co.in"," postal_code":400092," up3_admin_name":"Maharashtra","up2_admin_name":"Mumbai Suburban","up1_admin_name":"Mumbai","settlement":"Borivali West"},"geometry":{"type":"Point","coordinates":[72.828251,19.227029]}},{"type":"Feature","properties":{" poi_name":"Hello Kids"," street_name":"Laxman Mhatre"," street_type":"Road"," contact_info":"72080-70653, 90290-24461","Website":"mh.nest@hellokids.co.in"," postal_code":400103," up3_admin_name":"Maharashtra","up2_admin_name":"Mumbai Suburban","up1_admin_name":"Mumbai","settlement":"Borivali West"},"geometry":{"type":"Point","coordinates":[72.854246,19.242082]}},{"type":"Feature","properties":{" poi_name":"Himalaya High School"," street_name":"Sumernagar Jain Mandir"," street_type":"Marg"," contact_info":"22-28642389","Website":""," postal_code":400092," up3_admin_name":"Maharashtra","up2_admin_name":"Mumbai Suburban","up1_admin_name":"Mumbai","settlement":"Borivali West"},"geometry":{"type":"Point","coordinates":[72.853004,19.217286]}},{"type":"Feature","properties":{" poi_name":"Kids Galaxy Playgroup & Nursery"," street_name":""," street_type":""," contact_info":"98921-15415","Website":""," postal_code":400092," up3_admin_name":"Maharashtra","up2_admin_name":"Mumbai Suburban","up1_admin_name":"Mumbai","settlement":"Borivali West"},"geometry":{"type":"Point","coordinates":[72.839096,19.22117]}},{"type":"Feature","properties":{" poi_name":"Kids Toy Library"," street_name":"Roshan Nagar"," street_type":"Marg"," contact_info":"98700-07567","Website":""," postal_code":400092," up3_admin_name":"Maharashtra","up2_admin_name":"Mumbai Suburban","up1_admin_name":"Mumbai","settlement":"Borivali West"},"geometry":{"type":"Point","coordinates":[72.852438,19.231557]}},{"type":"Feature","properties":{" poi_name":"Kidzee"," street_name":""," street_type":""," contact_info":"","Website":""," postal_code":400092," up3_admin_name":"Maharashtra","up2_admin_name":"Mumbai Suburban","up1_admin_name":"Mumbai","settlement":"Borivali West"},"geometry":{"type":"Point","coordinates":[72.83443,19.219875]}},{"type":"Feature","properties":{" poi_name":"Kum Purnima V Valia English Medium K G Classes"," street_name":"Dr D G Palkar"," street_type":"Marg"," contact_info":"","Website":""," postal_code":400092," up3_admin_name":"Maharashtra","up2_admin_name":"Mumbai Suburban","up1_admin_name":"Mumbai","settlement":"Borivali West"},"geometry":{"type":"Point","coordinates":[72.851991,19.226631]}},{"type":"Feature","properties":{" poi_name":"Lalji Trikamji Hindi School"," street_name":"Swami Vivekanand"," street_type":"Road"," contact_info":"","Website":""," postal_code":400092," up3_admin_name":"Maharashtra","up2_admin_name":"Mumbai Suburban","up1_admin_name":"Mumbai","settlement":"Borivali West"},"geometry":{"type":"Point","coordinates":[72.853809,19.223506]}},{"type":"Feature","properties":{" poi_name":"Lion Juhu Ku Sudha V Patil Gujarati Balmandir"," street_name":"Dr D G Palkar"," street_type":"Marg"," contact_info":"","Website":""," postal_code":400092," up3_admin_name":"Maharashtra","up2_admin_name":"Mumbai Suburban","up1_admin_name":"Mumbai","settlement":"Borivali West"},"geometry":{"type":"Point","coordinates":[72.851992,19.226643]}},{"type":"Feature","properties":{" poi_name":"Little Kingdom Pre-School Academy"," street_name":""," street_type":""," contact_info":"","Website":""," postal_code":400091," up3_admin_name":"Maharashtra","up2_admin_name":"Mumbai Suburban","up1_admin_name":"Mumbai","settlement":"Borivali West"},"geometry":{"type":"Point","coordinates":[72.834542,19.224439]}},{"type":"Feature","properties":{" poi_name":"Little Wings Play"," street_name":""," street_type":""," contact_info":"22-28988122","Website":""," postal_code":400092," up3_admin_name":"Maharashtra","up2_admin_name":"Mumbai Suburban","up1_admin_name":"Mumbai","settlement":"Borivali West"},"geometry":{"type":"Point","coordinates":[72.84173,19.2207]}},{"type":"Feature","properties":{" poi_name":"M J Junior College of Science"," street_name":"L T"," street_type":"Road"," contact_info":"","Website":""," postal_code":400092," up3_admin_name":"Maharashtra","up2_admin_name":"Mumbai Suburban","up1_admin_name":"Mumbai","settlement":"Borivali West"},"geometry":{"type":"Point","coordinates":[72.838793,19.230561]}},{"type":"Feature","properties":{" poi_name":"M K N Bhatia High School"," street_name":"Sai Baba Nagar"," street_type":"Road"," contact_info":"22-28088964","Website":""," postal_code":400092," up3_admin_name":"Maharashtra","up2_admin_name":"Mumbai Suburban","up1_admin_name":"Mumbai","settlement":"Borivali West"},"geometry":{"type":"Point","coordinates":[72.84797,19.215055]}},{"type":"Feature","properties":{" poi_name":"Manahar Hariram Chogake Vidyalaya"," street_name":"Ganesh"," street_type":"Gali"," contact_info":"","Website":""," postal_code":400092," up3_admin_name":"Maharashtra","up2_admin_name":"Mumbai Suburban","up1_admin_name":"Mumbai","settlement":"Borivali West"},"geometry":{"type":"Point","coordinates":[72.828239,19.229629]}},{"type":"Feature","properties":{" poi_name":"Manohar Hariram Chogale Vidyalaya"," street_name":"Gorai Link"," street_type":"Road"," contact_info":"22-28695118","Website":""," postal_code":400092," up3_admin_name":"Maharashtra","up2_admin_name":"Mumbai Suburban","up1_admin_name":"Mumbai","settlement":"Borivali West"},"geometry":{"type":"Point","coordinates":[72.828447,19.229173]}},{"type":"Feature","properties":{" poi_name":"Mary Immaculate Girls Primary School"," street_name":"L I C Colony Main"," street_type":"Road"," contact_info":"22-28931311","Website":""," postal_code":400103," up3_admin_name":"Maharashtra","up2_admin_name":"Mumbai Suburban","up1_admin_name":"Mumbai","settlement":"Borivali West"},"geometry":{"type":"Point","coordinates":[72.852433,19.239705]}},{"type":"Feature","properties":{" poi_name":"Matoshree Kashiben Vrajlal Valia International Vidyalaya"," street_name":""," street_type":""," contact_info":"","Website":""," postal_code":400092," up3_admin_name":"Maharashtra","up2_admin_name":"Mumbai Suburban","up1_admin_name":"Mumbai","settlement":"Borivali West"},"geometry":{"type":"Point","coordinates":[72.851494,19.227052]}},{"type":"Feature","properties":{" poi_name":"Matushri J J Dattani Balmandir"," street_name":"Dr D G Palkar"," street_type":"Marg"," contact_info":"","Website":""," postal_code":400092," up3_admin_name":"Maharashtra","up2_admin_name":"Mumbai Suburban","up1_admin_name":"Mumbai","settlement":"Borivali West"},"geometry":{"type":"Point","coordinates":[72.85199,19.226618]}},{"type":"Feature","properties":{" poi_name":"Matushri Kashiben Vrajlal Valia International Vidyalaya Cbse"," street_name":"Dr D G Palkar"," street_type":"Marg"," contact_info":"22-28995999, 22-32232999","Website":""," postal_code":400092," up3_admin_name":"Maharashtra","up2_admin_name":"Mumbai Suburban","up1_admin_name":"Mumbai","settlement":"Borivali West"},"geometry":{"type":"Point","coordinates":[72.851992,19.226643]}},{"type":"Feature","properties":{" poi_name":"Matushri Velbai Velji Gala Primary School"," street_name":"Dr D G Palkar"," street_type":"Marg"," contact_info":"","Website":""," postal_code":400092," up3_admin_name":"Maharashtra","up2_admin_name":"Mumbai Suburban","up1_admin_name":"Mumbai","settlement":"Borivali West"},"geometry":{"type":"Point","coordinates":[72.85199,19.226618]}},{"type":"Feature","properties":{" poi_name":"Matushri Vinibhai Valia Gujarati Primary School"," street_name":""," street_type":""," contact_info":"","Website":""," postal_code":400092," up3_admin_name":"Maharashtra","up2_admin_name":"Mumbai Suburban","up1_admin_name":"Mumbai","settlement":"Borivali West"},"geometry":{"type":"Point","coordinates":[72.851108,19.226493]}},{"type":"Feature","properties":{" poi_name":"Morning Dales"," street_name":"Soni Wadi"," street_type":"Road"," contact_info":"22-66789449","Website":""," postal_code":400092," up3_admin_name":"Maharashtra","up2_admin_name":"Mumbai Suburban","up1_admin_name":"Mumbai","settlement":"Borivali West"},"geometry":{"type":"Point","coordinates":[72.852877,19.222769]}},{"type":"Feature","properties":{" poi_name":"Nalanda School"," street_name":""," street_type":""," contact_info":"","Website":""," postal_code":400092," up3_admin_name":"Maharashtra","up2_admin_name":"Mumbai Suburban","up1_admin_name":"Mumbai","settlement":"Borivali West"},"geometry":{"type":"Point","coordinates":[72.82493,19.22645]}},{"type":"Feature","properties":{" poi_name":"Namdar Gopal Krishna Gokhale HS"," street_name":"Shimpoli"," street_type":"Marg"," contact_info":"22-28980428","Website":""," postal_code":400092," up3_admin_name":"Maharashtra","up2_admin_name":"Mumbai Suburban","up1_admin_name":"Mumbai","settlement":"Borivali West"},"geometry":{"type":"Point","coordinates":[72.851193,19.223645]}},{"type":"Feature","properties":{" poi_name":"Narayana E-Techno School"," street_name":"Dr Kalpana Chawla"," street_type":"Marg"," contact_info":"77188-98930, 77188-98931","Website":"borivali@narayanagroup.com"," postal_code":400103," up3_admin_name":"Maharashtra","up2_admin_name":"Mumbai Suburban","up1_admin_name":"Mumbai","settlement":"Borivali West"},"geometry":{"type":"Point","coordinates":[72.846401,19.244839]}},{"type":"Feature","properties":{" poi_name":"Our Lady of Remedy High School"," street_name":"S V"," street_type":"Road"," contact_info":"22-28050617","Website":""," postal_code":400092," up3_admin_name":"Maharashtra","up2_admin_name":"Mumbai Suburban","up1_admin_name":"Mumbai","settlement":"Borivali West"},"geometry":{"type":"Point","coordinates":[72.851247,19.214001]}},{"type":"Feature","properties":{" poi_name":"Our Lady of Vailankanni High School"," street_name":"New Link RD"," street_type":""," contact_info":"22-65240240, 22-65280280","Website":""," postal_code":400091," up3_admin_name":"Maharashtra","up2_admin_name":"Mumbai Suburban","up1_admin_name":"Mumbai","settlement":"Borivali West"},"geometry":{"type":"Point","coordinates":[72.840652,19.236422]}},{"type":"Feature","properties":{" poi_name":"Pace Junior Science College"," street_name":""," street_type":""," contact_info":"","Website":""," postal_code":400092," up3_admin_name":"Maharashtra","up2_admin_name":"Mumbai Suburban","up1_admin_name":"Mumbai","settlement":"Borivali West"},"geometry":{"type":"Point","coordinates":[72.852399,19.220874]}},{"type":"Feature","properties":{" poi_name":"Pearson"," street_name":"Ramdas Sutrale"," street_type":"Marg"," contact_info":"22-65140914","Website":"borivali@eten.co.in"," postal_code":400092," up3_admin_name":"Maharashtra","up2_admin_name":"Mumbai Suburban","up1_admin_name":"Mumbai","settlement":"Borivali West"},"geometry":{"type":"Point","coordinates":[72.85361,19.229206]}},{"type":"Feature","properties":{" poi_name":"Peridot International Academy Nursery"," street_name":"Dr D G Palkar"," street_type":"Marg"," contact_info":"","Website":""," postal_code":400092," up3_admin_name":"Maharashtra","up2_admin_name":"Mumbai Suburban","up1_admin_name":"Mumbai","settlement":"Borivali West"},"geometry":{"type":"Point","coordinates":[72.851992,19.226643]}},{"type":"Feature","properties":{" poi_name":"Podar Jumbo Kids Plus"," street_name":"Shimpoli"," street_type":"Marg"," contact_info":"","Website":""," postal_code":400092," up3_admin_name":"Maharashtra","up2_admin_name":"Mumbai Suburban","up1_admin_name":"Mumbai","settlement":"Borivali West"},"geometry":{"type":"Point","coordinates":[72.852946,19.223397]}},{"type":"Feature","properties":{" poi_name":"Priya Darshani Shishu Vikasani"," street_name":"L T"," street_type":"Road"," contact_info":"","Website":""," postal_code":400092," up3_admin_name":"Maharashtra","up2_admin_name":"Mumbai Suburban","up1_admin_name":"Mumbai","settlement":"Borivali West"},"geometry":{"type":"Point","coordinates":[72.838761,19.230569]}},{"type":"Feature","properties":{" poi_name":"R C Patel High School"," street_name":""," street_type":""," contact_info":"22-28994418","Website":""," postal_code":400092," up3_admin_name":"Maharashtra","up2_admin_name":"Mumbai Suburban","up1_admin_name":"Mumbai","settlement":"Borivali West"},"geometry":{"type":"Point","coordinates":[72.851372,19.227375]}},{"type":"Feature","properties":{" poi_name":"R G Bajaria English Medium Primary School"," street_name":"Dr D G Palkar"," street_type":"Marg"," contact_info":"","Website":""," postal_code":400092," up3_admin_name":"Maharashtra","up2_admin_name":"Mumbai Suburban","up1_admin_name":"Mumbai","settlement":"Borivali West"},"geometry":{"type":"Point","coordinates":[72.851991,19.226631]}},{"type":"Feature","properties":{" poi_name":"RR International JR College"," street_name":"Dr Kalpana Chawla"," street_type":"Marg"," contact_info":"93226-76751","Website":""," postal_code":400103," up3_admin_name":"Maharashtra","up2_admin_name":"Mumbai Suburban","up1_admin_name":"Mumbai","settlement":"Borivali West"},"geometry":{"type":"Point","coordinates":[72.846408,19.244865]}},{"type":"Feature","properties":{" poi_name":"Raspberry Playgroup Nursery"," street_name":"Shri Sai Baba Mandir"," street_type":"Road"," contact_info":"98193-03036, 98195-29793","Website":""," postal_code":400092," up3_admin_name":"Maharashtra","up2_admin_name":"Mumbai Suburban","up1_admin_name":"Mumbai","settlement":"Borivali West"},"geometry":{"type":"Point","coordinates":[72.846308,19.21709]}},{"type":"Feature","properties":{" poi_name":"Rustomjee International School & Junior College"," street_name":"J Sawant"," street_type":"Road"," contact_info":"22-28950187","Website":""," postal_code":400103," up3_admin_name":"Maharashtra","up2_admin_name":"Mumbai Suburban","up1_admin_name":"Mumbai","settlement":"Borivali West"},"geometry":{"type":"Point","coordinates":[72.858308,19.239984]}},{"type":"Feature","properties":{" poi_name":"Ryan Public School"," street_name":"Devidas"," street_type":"Road"," contact_info":"22-28935066","Website":""," postal_code":400103," up3_admin_name":"Maharashtra","up2_admin_name":"Mumbai Suburban","up1_admin_name":"Mumbai","settlement":"Borivali West"},"geometry":{"type":"Point","coordinates":[72.846512,19.24002]}},{"type":"Feature","properties":{" poi_name":"S E International School"," street_name":""," street_type":""," contact_info":"22-28939490","Website":""," postal_code":400092," up3_admin_name":"Maharashtra","up2_admin_name":"Mumbai Suburban","up1_admin_name":"Mumbai","settlement":"Borivali West"},"geometry":{"type":"Point","coordinates":[72.856414,19.2366]}},{"type":"Feature","properties":{" poi_name":"S T Anne's High School"," street_name":"L T"," street_type":"Road"," contact_info":"22-28992033","Website":""," postal_code":400092," up3_admin_name":"Maharashtra","up2_admin_name":"Mumbai Suburban","up1_admin_name":"Mumbai","settlement":"Borivali West"},"geometry":{"type":"Point","coordinates":[72.850805,19.22863]}},{"type":"Feature","properties":{" poi_name":"ST. Francis School"," street_name":"L M"," street_type":"Road"," contact_info":"","Website":""," postal_code":400103," up3_admin_name":"Maharashtra","up2_admin_name":"Mumbai Suburban","up1_admin_name":"Mumbai","settlement":"Borivali West"},"geometry":{"type":"Point","coordinates":[72.853835,19.243107]}},{"type":"Feature","properties":{" poi_name":"ST. Lawrence High School"," street_name":"Devidas"," street_type":"Road"," contact_info":"","Website":""," postal_code":400103," up3_admin_name":"Maharashtra","up2_admin_name":"Mumbai Suburban","up1_admin_name":"Mumbai","settlement":"Borivali West"},"geometry":{"type":"Point","coordinates":[72.846564,19.239987]}},{"type":"Feature","properties":{" poi_name":"Sailee International School"," street_name":"L T"," street_type":"Road"," contact_info":"22-28673105","Website":""," postal_code":400092," up3_admin_name":"Maharashtra","up2_admin_name":"Mumbai Suburban","up1_admin_name":"Mumbai","settlement":"Borivali West"},"geometry":{"type":"Point","coordinates":[72.838761,19.230569]}},{"type":"Feature","properties":{" poi_name":"Sailee Junior College"," street_name":"L T"," street_type":"Road"," contact_info":"","Website":""," postal_code":400092," up3_admin_name":"Maharashtra","up2_admin_name":"Mumbai Suburban","up1_admin_name":"Mumbai","settlement":"Borivali West"},"geometry":{"type":"Point","coordinates":[72.83877,19.230567]}},{"type":"Feature","properties":{" poi_name":"Sant Dnyaneshwar Vidyalaya"," street_name":""," street_type":""," contact_info":"","Website":""," postal_code":400091," up3_admin_name":"Maharashtra","up2_admin_name":"Mumbai Suburban","up1_admin_name":"Mumbai","settlement":"Borivali West"},"geometry":{"type":"Point","coordinates":[72.839546,19.232671]}},{"type":"Feature","properties":{" poi_name":"Sheth J J Gujarati Primary School"," street_name":"Dr D G Palkar"," street_type":"Marg"," contact_info":"","Website":""," postal_code":400092," up3_admin_name":"Maharashtra","up2_admin_name":"Mumbai Suburban","up1_admin_name":"Mumbai","settlement":"Borivali West"},"geometry":{"type":"Point","coordinates":[72.851992,19.226652]}},{"type":"Feature","properties":{" poi_name":"Sheth Kanji V Parekh Arts & Commerce Junior College"," street_name":"Gokhale Mahavidhyalaya"," street_type":"Marg"," contact_info":"22-28673498","Website":""," postal_code":400091," up3_admin_name":"Maharashtra","up2_admin_name":"Mumbai Suburban","up1_admin_name":"Mumbai","settlement":"Borivali West"},"geometry":{"type":"Point","coordinates":[72.837192,19.232266]}},{"type":"Feature","properties":{" poi_name":"Sheth M K Patel High School"," street_name":"Dr D G Palkar"," street_type":"Marg"," contact_info":"","Website":""," postal_code":400092," up3_admin_name":"Maharashtra","up2_admin_name":"Mumbai Suburban","up1_admin_name":"Mumbai","settlement":"Borivali West"},"geometry":{"type":"Point","coordinates":[72.851991,19.226631]}},{"type":"Feature","properties":{" poi_name":"Sheth R G Bajaria English Medium Primary School"," street_name":"Dr D G Palkar"," street_type":"Marg"," contact_info":"","Website":""," postal_code":400092," up3_admin_name":"Maharashtra","up2_admin_name":"Mumbai Suburban","up1_admin_name":"Mumbai","settlement":"Borivali West"},"geometry":{"type":"Point","coordinates":[72.85199,19.226618]}},{"type":"Feature","properties":{" poi_name":"Shimpoli M N P Marathi School"," street_name":"Shimpoli"," street_type":"Road"," contact_info":"","Website":""," postal_code":400092," up3_admin_name":"Maharashtra","up2_admin_name":"Mumbai Suburban","up1_admin_name":"Mumbai","settlement":"Borivali West"},"geometry":{"type":"Point","coordinates":[72.844472,19.221611]}},{"type":"Feature","properties":{" poi_name":"Shishu Vikas Mandir"," street_name":"Soni Wadi"," street_type":"Road"," contact_info":"","Website":""," postal_code":400092," up3_admin_name":"Maharashtra","up2_admin_name":"Mumbai Suburban","up1_admin_name":"Mumbai","settlement":"Borivali West"},"geometry":{"type":"Point","coordinates":[72.851499,19.223032]}},{"type":"Feature","properties":{" poi_name":"Shree Mumbadevi Vidya Niketan English Medium School"," street_name":"Shri Swami Samarth"," street_type":"Marg"," contact_info":"22-28332277, 22-28602355","Website":""," postal_code":400092," up3_admin_name":"Maharashtra","up2_admin_name":"Mumbai Suburban","up1_admin_name":"Mumbai","settlement":"Borivali West"},"geometry":{"type":"Point","coordinates":[72.828033,19.228967]}},{"type":"Feature","properties":{" poi_name":"Shree Mumbadevi Vidya Niketan-Alternate Entrance"," street_name":"Gorai Link"," street_type":"Road"," contact_info":"","Website":""," postal_code":400092," up3_admin_name":"Maharashtra","up2_admin_name":"Mumbai Suburban","up1_admin_name":"Mumbai","settlement":"Borivali West"},"geometry":{"type":"Point","coordinates":[72.828447,19.229177]}},{"type":"Feature","properties":{" poi_name":"Sinhal JR College of Science"," street_name":"Devidas"," street_type":"Road"," contact_info":"","Website":""," postal_code":400103," up3_admin_name":"Maharashtra","up2_admin_name":"Mumbai Suburban","up1_admin_name":"Mumbai","settlement":"Borivali West"},"geometry":{"type":"Point","coordinates":[72.855557,19.237945]}},{"type":"Feature","properties":{" poi_name":"Sister Nevedita International School"," street_name":""," street_type":""," contact_info":"","Website":""," postal_code":400091," up3_admin_name":"Maharashtra","up2_admin_name":"Mumbai Suburban","up1_admin_name":"Mumbai","settlement":"Borivali West"},"geometry":{"type":"Point","coordinates":[72.83444,19.226961]}},{"type":"Feature","properties":{" poi_name":"Sodawala Lane English School"," street_name":"Ramdas Sutrale"," street_type":"Marg"," contact_info":"","Website":""," postal_code":400092," up3_admin_name":"Maharashtra","up2_admin_name":"Mumbai Suburban","up1_admin_name":"Mumbai","settlement":"Borivali West"},"geometry":{"type":"Point","coordinates":[72.853625,19.233058]}},{"type":"Feature","properties":{" poi_name":"Sodawala Lane High School"," street_name":"Ramdas Sutrale"," street_type":"Marg"," contact_info":"","Website":""," postal_code":400092," up3_admin_name":"Maharashtra","up2_admin_name":"Mumbai Suburban","up1_admin_name":"Mumbai","settlement":"Borivali West"},"geometry":{"type":"Point","coordinates":[72.853624,19.233022]}},{"type":"Feature","properties":{" poi_name":"Sodawala Lane Hindi School"," street_name":"Ramdas Sutrale"," street_type":"Marg"," contact_info":"","Website":""," postal_code":400092," up3_admin_name":"Maharashtra","up2_admin_name":"Mumbai Suburban","up1_admin_name":"Mumbai","settlement":"Borivali West"},"geometry":{"type":"Point","coordinates":[72.853624,19.233047]}},{"type":"Feature","properties":{" poi_name":"Sodawala Lane Kannad School"," street_name":"Ramdas Sutrale"," street_type":"Marg"," contact_info":"","Website":""," postal_code":400092," up3_admin_name":"Maharashtra","up2_admin_name":"Mumbai Suburban","up1_admin_name":"Mumbai","settlement":"Borivali West"},"geometry":{"type":"Point","coordinates":[72.853625,19.233058]}},{"type":"Feature","properties":{" poi_name":"Sodawala Lane Marathi School"," street_name":"Ramdas Sutrale"," street_type":"Marg"," contact_info":"","Website":""," postal_code":400092," up3_admin_name":"Maharashtra","up2_admin_name":"Mumbai Suburban","up1_admin_name":"Mumbai","settlement":"Borivali West"},"geometry":{"type":"Point","coordinates":[72.853625,19.233058]}},{"type":"Feature","properties":{" poi_name":"Sodawala Lane Telgu School"," street_name":"Ramdas Sutrale"," street_type":"Marg"," contact_info":"","Website":""," postal_code":400092," up3_admin_name":"Maharashtra","up2_admin_name":"Mumbai Suburban","up1_admin_name":"Mumbai","settlement":"Borivali West"},"geometry":{"type":"Point","coordinates":[72.853624,19.233047]}},{"type":"Feature","properties":{" poi_name":"Sodawala Lane Uchha Prathamik Vyavsayik School"," street_name":"Ramdas Sutrale"," street_type":"Marg"," contact_info":"","Website":""," postal_code":400092," up3_admin_name":"Maharashtra","up2_admin_name":"Mumbai Suburban","up1_admin_name":"Mumbai","settlement":"Borivali West"},"geometry":{"type":"Point","coordinates":[72.853624,19.233022]}},{"type":"Feature","properties":{" poi_name":"St Francis Dassisi High School & Junior Col"," street_name":"I C Colony"," street_type":"Road"," contact_info":"22-28931558","Website":""," postal_code":400103," up3_admin_name":"Maharashtra","up2_admin_name":"Mumbai Suburban","up1_admin_name":"Mumbai","settlement":"Borivali West"},"geometry":{"type":"Point","coordinates":[72.85306,19.24441]}},{"type":"Feature","properties":{" poi_name":"St Francis Dassisi High School"," street_name":"I C Colony"," street_type":"Road"," contact_info":"22-28931558","Website":""," postal_code":400103," up3_admin_name":"Maharashtra","up2_admin_name":"Mumbai Suburban","up1_admin_name":"Mumbai","settlement":"Borivali West"},"geometry":{"type":"Point","coordinates":[72.853113,19.244397]}},{"type":"Feature","properties":{" poi_name":"St Lawrence High School"," street_name":"Vallabh Nagar"," street_type":"Road"," contact_info":"22-28935066","Website":""," postal_code":400103," up3_admin_name":"Maharashtra","up2_admin_name":"Mumbai Suburban","up1_admin_name":"Mumbai","settlement":"Borivali West"},"geometry":{"type":"Point","coordinates":[72.846616,19.240218]}},{"type":"Feature","properties":{" poi_name":"St Rocks School"," street_name":"R S C No 29"," street_type":"Road"," contact_info":"22-28682586","Website":""," postal_code":400092," up3_admin_name":"Maharashtra","up2_admin_name":"Mumbai Suburban","up1_admin_name":"Mumbai","settlement":"Borivali West"},"geometry":{"type":"Point","coordinates":[72.825932,19.229091]}},{"type":"Feature","properties":{" poi_name":"Suvidyalaya"," street_name":""," street_type":""," contact_info":"","Website":""," postal_code":400092," up3_admin_name":"Maharashtra","up2_admin_name":"Mumbai Suburban","up1_admin_name":"Mumbai","settlement":"Borivali West"},"geometry":{"type":"Point","coordinates":[72.843275,19.231397]}},{"type":"Feature","properties":{" poi_name":"Swami Vivekanand International School"," street_name":"Samrat Ashok"," street_type":"Road"," contact_info":"22-28691002","Website":""," postal_code":400092," up3_admin_name":"Maharashtra","up2_admin_name":"Mumbai Suburban","up1_admin_name":"Mumbai","settlement":"Borivali West"},"geometry":{"type":"Point","coordinates":[72.830745,19.227278]}},{"type":"Feature","properties":{" poi_name":"The Tree House Playgroup & Nursery"," street_name":""," street_type":""," contact_info":"22-28901960, 22-64568999, 90044-23339","Website":""," postal_code":400103," up3_admin_name":"Maharashtra","up2_admin_name":"Mumbai Suburban","up1_admin_name":"Mumbai","settlement":"Borivali West"},"geometry":{"type":"Point","coordinates":[72.85459,19.239406]}},{"type":"Feature","properties":{" poi_name":"The Tree House"," street_name":""," street_type":""," contact_info":"22-28901960, 22-28907359","Website":""," postal_code":400092," up3_admin_name":"Maharashtra","up2_admin_name":"Mumbai Suburban","up1_admin_name":"Mumbai","settlement":"Borivali West"},"geometry":{"type":"Point","coordinates":[72.83843,19.221615]}},{"type":"Feature","properties":{" poi_name":"The Tree House"," street_name":""," street_type":""," contact_info":"22-28901960","Website":""," postal_code":400092," up3_admin_name":"Maharashtra","up2_admin_name":"Mumbai Suburban","up1_admin_name":"Mumbai","settlement":"Borivali West"},"geometry":{"type":"Point","coordinates":[72.855056,19.232592]}},{"type":"Feature","properties":{" poi_name":"The Tree House"," street_name":""," street_type":""," contact_info":"22-28986111","Website":""," postal_code":400092," up3_admin_name":"Maharashtra","up2_admin_name":"Mumbai Suburban","up1_admin_name":"Mumbai","settlement":"Borivali West"},"geometry":{"type":"Point","coordinates":[72.842809,19.220529]}},{"type":"Feature","properties":{" poi_name":"The Tree House"," street_name":"Haribhai Urf Bhausaheb Vartak"," street_type":"Marg"," contact_info":"22-28901960, 22-28907359","Website":""," postal_code":400092," up3_admin_name":"Maharashtra","up2_admin_name":"Mumbai Suburban","up1_admin_name":"Mumbai","settlement":"Borivali West"},"geometry":{"type":"Point","coordinates":[72.84965,19.225405]}},{"type":"Feature","properties":{" poi_name":"The Tree House"," street_name":"Kai D D Borage Urf Dadu Master"," street_type":"Marg"," contact_info":"22-28901960, 22-28907359","Website":""," postal_code":400092," up3_admin_name":"Maharashtra","up2_admin_name":"Mumbai Suburban","up1_admin_name":"Mumbai","settlement":"Borivali West"},"geometry":{"type":"Point","coordinates":[72.846713,19.235135]}},{"type":"Feature","properties":{" poi_name":"The Tree House"," street_name":"Sai Baba Nagar"," street_type":"Road"," contact_info":"","Website":""," postal_code":400092," up3_admin_name":"Maharashtra","up2_admin_name":"Mumbai Suburban","up1_admin_name":"Mumbai","settlement":"Borivali West"},"geometry":{"type":"Point","coordinates":[72.84807,19.215578]}},{"type":"Feature","properties":{" poi_name":"Twinkle Playgroup & Nursery"," street_name":""," street_type":""," contact_info":"92246-71564","Website":""," postal_code":400092," up3_admin_name":"Maharashtra","up2_admin_name":"Mumbai Suburban","up1_admin_name":"Mumbai","settlement":"Borivali West"},"geometry":{"type":"Point","coordinates":[72.852556,19.224409]}},{"type":"Feature","properties":{" poi_name":"Ucch Madhyamik Matimand School"," street_name":"Ramdas Sutrale"," street_type":"Marg"," contact_info":"","Website":""," postal_code":400092," up3_admin_name":"Maharashtra","up2_admin_name":"Mumbai Suburban","up1_admin_name":"Mumbai","settlement":"Borivali West"},"geometry":{"type":"Point","coordinates":[72.853624,19.233022]}},{"type":"Feature","properties":{" poi_name":"V K Krishna Menon Academy"," street_name":"Pasaydan"," street_type":"Road"," contact_info":"","Website":""," postal_code":400092," up3_admin_name":"Maharashtra","up2_admin_name":"Mumbai Suburban","up1_admin_name":"Mumbai","settlement":"Borivali West"},"geometry":{"type":"Point","coordinates":[72.838318,19.227047]}},{"type":"Feature","properties":{" poi_name":"Vidya Vikas Sabha High School"," street_name":"Govind Nagar Main"," street_type":"Road"," contact_info":"22-28932812","Website":""," postal_code":400092," up3_admin_name":"Maharashtra","up2_admin_name":"Mumbai Suburban","up1_admin_name":"Mumbai","settlement":"Borivali West"},"geometry":{"type":"Point","coordinates":[72.851437,19.233933]}},{"type":"Feature","properties":{" poi_name":"Vijsy Nagar High School"," street_name":""," street_type":""," contact_info":"","Website":""," postal_code":400092," up3_admin_name":"Maharashtra","up2_admin_name":"Mumbai Suburban","up1_admin_name":"Mumbai","settlement":"Borivali West"},"geometry":{"type":"Point","coordinates":[72.842913,19.237628]}},{"type":"Feature","properties":{" poi_name":"Vrajlal D Valia Junior Col of Com"," street_name":"Dr D G Palkar"," street_type":"Marg"," contact_info":"","Website":""," postal_code":400092," up3_admin_name":"Maharashtra","up2_admin_name":"Mumbai Suburban","up1_admin_name":"Mumbai","settlement":"Borivali West"},"geometry":{"type":"Point","coordinates":[72.851988,19.226587]}},{"type":"Feature","properties":{" poi_name":"Awesome Kids"," street_name":""," street_type":""," contact_info":"90049-62994","Website":""," postal_code":400092," up3_admin_name":"Maharashtra","up2_admin_name":"Mumbai Suburban","up1_admin_name":"Mumbai","settlement":"Borivali West"},"geometry":{"type":"Point","coordinates":[72.834567,19.224469]}},{"type":"Feature","properties":{" poi_name":"Blossoms Play Group Nursery & K G"," street_name":"L T"," street_type":"Road"," contact_info":"22-28334961","Website":"http://www.blossomschool.com"," postal_code":400091," up3_admin_name":"Maharashtra","up2_admin_name":"Mumbai Suburban","up1_admin_name":"Mumbai","settlement":"Borivali West"},"geometry":{"type":"Point","coordinates":[72.84367,19.232769]}},{"type":"Feature","properties":{" poi_name":"Blossoms Playgroup & Nursery"," street_name":""," street_type":""," contact_info":"22-28980416","Website":""," postal_code":400092," up3_admin_name":"Maharashtra","up2_admin_name":"Mumbai Suburban","up1_admin_name":"Mumbai","settlement":"Borivali West"},"geometry":{"type":"Point","coordinates":[72.846869,19.221984]}},{"type":"Feature","properties":{" poi_name":"Brainy Brats Play School"," street_name":""," street_type":""," contact_info":"95945-88448","Website":""," postal_code":400092," up3_admin_name":"Maharashtra","up2_admin_name":"Mumbai Suburban","up1_admin_name":"Mumbai","settlement":"Borivali West"},"geometry":{"type":"Point","coordinates":[72.847051,19.221922]}},{"type":"Feature","properties":{" poi_name":"Bright Beginning with Little Step"," street_name":""," street_type":""," contact_info":"96640-06023, 99206-23308","Website":""," postal_code":400092," up3_admin_name":"Maharashtra","up2_admin_name":"Mumbai Suburban","up1_admin_name":"Mumbai","settlement":"Borivali West"},"geometry":{"type":"Point","coordinates":[72.826566,19.231214]}},{"type":"Feature","properties":{" poi_name":"Buddy Buds"," street_name":""," street_type":""," contact_info":"99203-28482","Website":""," postal_code":400092," up3_admin_name":"Maharashtra","up2_admin_name":"Mumbai Suburban","up1_admin_name":"Mumbai","settlement":"Borivali West"},"geometry":{"type":"Point","coordinates":[72.845793,19.228021]}},{"type":"Feature","properties":{" poi_name":"Chhote Ustaad Play Group Nursery & Activity Centre"," street_name":"Devidas"," street_type":"Road"," contact_info":"99871-90900","Website":""," postal_code":400103," up3_admin_name":"Maharashtra","up2_admin_name":"Mumbai Suburban","up1_admin_name":"Mumbai","settlement":"Borivali West"},"geometry":{"type":"Point","coordinates":[72.844984,19.240897]}},{"type":"Feature","properties":{" poi_name":"Cloud 9 Pre-School"," street_name":"Antaral Virangana Kalpana Chawla"," street_type":"Marg"," contact_info":"98690-43048","Website":""," postal_code":400103," up3_admin_name":"Maharashtra","up2_admin_name":"Mumbai Suburban","up1_admin_name":"Mumbai","settlement":"Borivali West"},"geometry":{"type":"Point","coordinates":[72.846338,19.241035]}},{"type":"Feature","properties":{" poi_name":"Ding Dong Playgroup & Nursery"," street_name":"L T"," street_type":"Road"," contact_info":"","Website":""," postal_code":400092," up3_admin_name":"Maharashtra","up2_admin_name":"Mumbai Suburban","up1_admin_name":"Mumbai","settlement":"Borivali West"},"geometry":{"type":"Point","coordinates":[72.844325,19.230984]}},{"type":"Feature","properties":{" poi_name":"Dolphins"," street_name":"Padmshree Bhaurao Patil"," street_type":"Marg"," contact_info":"98200-58338, 98206-22060","Website":"036dolphins@gmail.com"," postal_code":400092," up3_admin_name":"Maharashtra","up2_admin_name":"Mumbai Suburban","up1_admin_name":"Mumbai","settlement":"Borivali West"},"geometry":{"type":"Point","coordinates":[72.826869,19.226732]}},{"type":"Feature","properties":{" poi_name":"Indo Kids"," street_name":"Darpankar Balshastri Jambekar"," street_type":"Chowk"," contact_info":"22-65857686, 98700-02769","Website":""," postal_code":400092," up3_admin_name":"Maharashtra","up2_admin_name":"Mumbai Suburban","up1_admin_name":"Mumbai","settlement":"Borivali West"},"geometry":{"type":"Point","coordinates":[72.839151,19.22226]}},{"type":"Feature","properties":{" poi_name":"Jingles Play Group Nursery & Activity Centre"," street_name":""," street_type":""," contact_info":"97691-30863","Website":""," postal_code":400092," up3_admin_name":"Maharashtra","up2_admin_name":"Mumbai Suburban","up1_admin_name":"Mumbai","settlement":"Borivali West"},"geometry":{"type":"Point","coordinates":[72.847705,19.232506]}},{"type":"Feature","properties":{" poi_name":"Jingles Playgroup"," street_name":""," street_type":""," contact_info":"97691-30863","Website":""," postal_code":400092," up3_admin_name":"Maharashtra","up2_admin_name":"Mumbai Suburban","up1_admin_name":"Mumbai","settlement":"Borivali West"},"geometry":{"type":"Point","coordinates":[72.847697,19.232323]}},{"type":"Feature","properties":{" poi_name":"Kid Zone Multi Activity Centre"," street_name":"Devidas"," street_type":"Road"," contact_info":"98700-49192","Website":""," postal_code":400103," up3_admin_name":"Maharashtra","up2_admin_name":"Mumbai Suburban","up1_admin_name":"Mumbai","settlement":"Borivali West"},"geometry":{"type":"Point","coordinates":[72.845097,19.240807]}},{"type":"Feature","properties":{" poi_name":"Kids Corner"," street_name":"S V"," street_type":"Road"," contact_info":"22-28633252","Website":""," postal_code":400092," up3_admin_name":"Maharashtra","up2_admin_name":"Mumbai Suburban","up1_admin_name":"Mumbai","settlement":"Borivali West"},"geometry":{"type":"Point","coordinates":[72.850844,19.214476]}},{"type":"Feature","properties":{" poi_name":"Kids Small Wonders"," street_name":"Rokadiya"," street_type":"Marg"," contact_info":"22-28903622","Website":""," postal_code":400092," up3_admin_name":"Maharashtra","up2_admin_name":"Mumbai Suburban","up1_admin_name":"Mumbai","settlement":"Borivali West"},"geometry":{"type":"Point","coordinates":[72.856235,19.235689]}},{"type":"Feature","properties":{" poi_name":"Kinds Wonder Playgroup & Nursery"," street_name":"Shri Sai Baba Mandir"," street_type":"Road"," contact_info":"22-28626030","Website":""," postal_code":400092," up3_admin_name":"Maharashtra","up2_admin_name":"Mumbai Suburban","up1_admin_name":"Mumbai","settlement":"Borivali West"},"geometry":{"type":"Point","coordinates":[72.849112,19.21708]}},{"type":"Feature","properties":{" poi_name":"Little Angels Nursery"," street_name":"Shri Sai Baba Mandir"," street_type":"Road"," contact_info":"","Website":""," postal_code":400092," up3_admin_name":"Maharashtra","up2_admin_name":"Mumbai Suburban","up1_admin_name":"Mumbai","settlement":"Borivali West"},"geometry":{"type":"Point","coordinates":[72.845423,19.21725]}},{"type":"Feature","properties":{" poi_name":"Little Angles Pre School"," street_name":"Dr Balwantrao J Patil"," street_type":"Marg"," contact_info":"22-26495020","Website":""," postal_code":400092," up3_admin_name":"Maharashtra","up2_admin_name":"Mumbai Suburban","up1_admin_name":"Mumbai","settlement":"Borivali West"},"geometry":{"type":"Point","coordinates":[72.850251,19.234388]}},{"type":"Feature","properties":{" poi_name":"Little Star Play Group & Nursery"," street_name":""," street_type":""," contact_info":"22-28912293","Website":""," postal_code":400103," up3_admin_name":"Maharashtra","up2_admin_name":"Mumbai Suburban","up1_admin_name":"Mumbai","settlement":"Borivali West"},"geometry":{"type":"Point","coordinates":[72.845442,19.23719]}},{"type":"Feature","properties":{" poi_name":"Littleones Nursery and Play Group"," street_name":""," street_type":""," contact_info":"","Website":""," postal_code":400092," up3_admin_name":"Maharashtra","up2_admin_name":"Mumbai Suburban","up1_admin_name":"Mumbai","settlement":"Borivali West"},"geometry":{"type":"Point","coordinates":[72.852118,19.214617]}},{"type":"Feature","properties":{" poi_name":"Mickey Play House"," street_name":""," street_type":""," contact_info":"95945-88448","Website":""," postal_code":400092," up3_admin_name":"Maharashtra","up2_admin_name":"Mumbai Suburban","up1_admin_name":"Mumbai","settlement":"Borivali West"},"geometry":{"type":"Point","coordinates":[72.84539,19.222566]}},{"type":"Feature","properties":{" poi_name":"Mothers Touch"," street_name":""," street_type":""," contact_info":"22-28680528","Website":"http://www.britishpreschools.com"," postal_code":400092," up3_admin_name":"Maharashtra","up2_admin_name":"Mumbai Suburban","up1_admin_name":"Mumbai","settlement":"Borivali West"},"geometry":{"type":"Point","coordinates":[72.826506,19.230903]}},{"type":"Feature","properties":{" poi_name":"Next Generation"," street_name":"L T"," street_type":"Road"," contact_info":"99309-88255","Website":""," postal_code":400091," up3_admin_name":"Maharashtra","up2_admin_name":"Mumbai Suburban","up1_admin_name":"Mumbai","settlement":"Borivali West"},"geometry":{"type":"Point","coordinates":[72.842077,19.233123]}},{"type":"Feature","properties":{" poi_name":"Rosary English School"," street_name":"Himmatnagar"," street_type":"Road"," contact_info":"","Website":""," postal_code":400092," up3_admin_name":"Maharashtra","up2_admin_name":"Mumbai Suburban","up1_admin_name":"Mumbai","settlement":"Borivali West"},"geometry":{"type":"Point","coordinates":[72.853784,19.235181]}},{"type":"Feature","properties":{" poi_name":"Shishumandir Play Group & Nursery"," street_name":"Kai D D Borage Urf Dadu Master"," street_type":"Marg"," contact_info":"22-28952958","Website":""," postal_code":400092," up3_admin_name":"Maharashtra","up2_admin_name":"Mumbai Suburban","up1_admin_name":"Mumbai","settlement":"Borivali West"},"geometry":{"type":"Point","coordinates":[72.846836,19.235126]}},{"type":"Feature","properties":{" poi_name":"Sun Shine Playgroup Nursery"," street_name":""," street_type":""," contact_info":"22-28650653","Website":""," postal_code":400092," up3_admin_name":"Maharashtra","up2_admin_name":"Mumbai Suburban","up1_admin_name":"Mumbai","settlement":"Borivali West"},"geometry":{"type":"Point","coordinates":[72.85266,19.214368]}},{"type":"Feature","properties":{" poi_name":"The First Step Play School & Nursery"," street_name":""," street_type":""," contact_info":"88795-63467","Website":""," postal_code":400092," up3_admin_name":"Maharashtra","up2_admin_name":"Mumbai Suburban","up1_admin_name":"Mumbai","settlement":"Borivali West"},"geometry":{"type":"Point","coordinates":[72.844039,19.234539]}},{"type":"Feature","properties":{" poi_name":"The Tree House"," street_name":""," street_type":""," contact_info":"22-65295296","Website":""," postal_code":400092," up3_admin_name":"Maharashtra","up2_admin_name":"Mumbai Suburban","up1_admin_name":"Mumbai","settlement":"Borivali West"},"geometry":{"type":"Point","coordinates":[72.847693,19.232246]}},{"type":"Feature","properties":{" poi_name":"The Tree House"," street_name":"Amarkant Zha"," street_type":"Marg"," contact_info":"","Website":""," postal_code":400092," up3_admin_name":"Maharashtra","up2_admin_name":"Mumbai Suburban","up1_admin_name":"Mumbai","settlement":"Borivali West"},"geometry":{"type":"Point","coordinates":[72.844314,19.227208]}},{"type":"Feature","properties":{" poi_name":"The Tree House"," street_name":"Chandavarkar Cross No 1"," street_type":"Road"," contact_info":"73030-62933","Website":""," postal_code":400092," up3_admin_name":"Maharashtra","up2_admin_name":"Mumbai Suburban","up1_admin_name":"Mumbai","settlement":"Borivali West"},"geometry":{"type":"Point","coordinates":[72.85349,19.234681]}},{"type":"Feature","properties":{" poi_name":"The Tree House"," street_name":"I C Colony Cross Road No 2"," street_type":""," contact_info":"22-65616092","Website":""," postal_code":400103," up3_admin_name":"Maharashtra","up2_admin_name":"Mumbai Suburban","up1_admin_name":"Mumbai","settlement":"Borivali West"},"geometry":{"type":"Point","coordinates":[72.847123,19.247463]}},{"type":"Feature","properties":{" poi_name":"The Tree House"," street_name":"Rajyog Bramha Kumari"," street_type":"Marg"," contact_info":"22-65619607","Website":""," postal_code":400092," up3_admin_name":"Maharashtra","up2_admin_name":"Mumbai Suburban","up1_admin_name":"Mumbai","settlement":"Borivali West"},"geometry":{"type":"Point","coordinates":[72.82788,19.230549]}},{"type":"Feature","properties":{" poi_name":"The Tree House"," street_name":"Sumernagar Jain Mandir"," street_type":"Marg"," contact_info":"90044-23339","Website":""," postal_code":400092," up3_admin_name":"Maharashtra","up2_admin_name":"Mumbai Suburban","up1_admin_name":"Mumbai","settlement":"Borivali West"},"geometry":{"type":"Point","coordinates":[72.853878,19.21938]}},{"type":"Feature","properties":{" poi_name":"Tini Mini Play Group Nursery"," street_name":""," street_type":""," contact_info":"99206-51779","Website":""," postal_code":400092," up3_admin_name":"Maharashtra","up2_admin_name":"Mumbai Suburban","up1_admin_name":"Mumbai","settlement":"Borivali West"},"geometry":{"type":"Point","coordinates":[72.843644,19.237298]}},{"type":"Feature","properties":{" poi_name":"Tiny Tots Playgrounp & Nursery"," street_name":""," street_type":""," contact_info":"22-28083238","Website":""," postal_code":400092," up3_admin_name":"Maharashtra","up2_admin_name":"Mumbai Suburban","up1_admin_name":"Mumbai","settlement":"Borivali West"},"geometry":{"type":"Point","coordinates":[72.845798,19.217272]}},{"type":"Feature","properties":{" poi_name":"Toddlers Academy"," street_name":"L T"," street_type":"Road"," contact_info":"98200-74221","Website":""," postal_code":400091," up3_admin_name":"Maharashtra","up2_admin_name":"Mumbai Suburban","up1_admin_name":"Mumbai","settlement":"Borivali West"},"geometry":{"type":"Point","coordinates":[72.839814,19.235017]}},{"type":"Feature","properties":{" poi_name":"Twinkle Kids"," street_name":""," street_type":""," contact_info":"98671-52253","Website":""," postal_code":400092," up3_admin_name":"Maharashtra","up2_admin_name":"Mumbai Suburban","up1_admin_name":"Mumbai","settlement":"Borivali West"},"geometry":{"type":"Point","coordinates":[72.83989,19.223251]}},{"type":"Feature","properties":{" poi_name":"Twinkle Star Playgroup & Nursery"," street_name":"Malhar Rao Kulkarni"," street_type":"Marg"," contact_info":"22-28994881, 98690-76091","Website":""," postal_code":400092," up3_admin_name":"Maharashtra","up2_admin_name":"Mumbai Suburban","up1_admin_name":"Mumbai","settlement":"Borivali West"},"geometry":{"type":"Point","coordinates":[72.841993,19.226946]}},{"type":"Feature","properties":{" poi_name":"Wonder Kids"," street_name":"Yogi Nagar Eksar"," street_type":"Road"," contact_info":"98675-52582, 98705-10049","Website":""," postal_code":400092," up3_admin_name":"Maharashtra","up2_admin_name":"Mumbai Suburban","up1_admin_name":"Mumbai","settlement":"Borivali West"},"geometry":{"type":"Point","coordinates":[72.841017,19.23501]}},{"type":"Feature","properties":{" poi_name":"Wonder World Nursery Play Group"," street_name":""," street_type":""," contact_info":"","Website":""," postal_code":400092," up3_admin_name":"Maharashtra","up2_admin_name":"Mumbai Suburban","up1_admin_name":"Mumbai","settlement":"Borivali West"},"geometry":{"type":"Point","coordinates":[72.85228,19.2192]}},{"type":"Feature","properties":{" poi_name":"smart Kidz"," street_name":""," street_type":""," contact_info":"22-28011923, 92217-86750","Website":""," postal_code":400092," up3_admin_name":"Maharashtra","up2_admin_name":"Mumbai Suburban","up1_admin_name":"Mumbai","settlement":"Borivali West"},"geometry":{"type":"Point","coordinates":[72.85228,19.2192]}},{"type":"Feature","properties":{" poi_name":"smart Steps"," street_name":""," street_type":""," contact_info":"99874-12001","Website":""," postal_code":400091," up3_admin_name":"Maharashtra","up2_admin_name":"Mumbai Suburban","up1_admin_name":"Mumbai","settlement":"Borivali West"},"geometry":{"type":"Point","coordinates":[72.838249,19.232588]}},{"type":"Feature","properties":{"fill":"#555555","fill-opacity":0.5,"stroke":"#a9011f","stroke-width":2,"stroke-opacity":1,"Name":"Borivali"},"geometry":{"type":"Polygon","coordinates":[[[72.81710654497154,19.22591259500315],[72.82762080430992,19.224058709909247],[72.82882243394859,19.223005126545086],[72.82942324876794,19.22298486526035],[72.83109694719322,19.223694008740065],[72.83244878053672,19.223714269937357],[72.83388644456873,19.223795314701594],[72.83407956361778,19.223764922919706],[72.83397763967521,19.223258392393664],[72.83416539430627,19.22309123697744],[72.83412784338005,19.22217441182182],[72.83400982618343,19.219834205084258],[72.8380465507508,19.219770887339408],[72.83940911293041,19.21961132651414],[72.84075289964687,19.219661980761167],[72.84034520387657,19.217997980579085],[72.83936351537713,19.216204792574572],[72.84051686525356,19.21544496124834],[72.84182041883477,19.216004703999317],[72.84250974655157,19.21581474626585],[72.84385085105899,19.215313256794694],[72.84401178359988,19.215424699031594],[72.8447896242142,19.215298060120162],[72.84490227699281,19.214173502307087],[72.84811019897461,19.214203895862656],[72.8480699658395,19.214809233006925],[72.8510767221451,19.214867487091563],[72.85107135772706,19.214345732380927],[72.85126179456714,19.213889828850995],[72.85157293081285,19.213606154905428],[72.85185456275941,19.21375052474246],[72.85344243049623,19.21392022245899],[72.85571694374086,19.213074264938225],[72.85593688488008,19.213287021131602],[72.85623997449882,19.213330078899105],[72.85644382238397,19.213127454012362],[72.85696953535087,19.213228766486914],[72.85752743482597,19.213406063167263],[72.85789221525202,19.213243963352685],[72.8583803772927,19.213259160217145],[72.85893291234979,19.21355296598611],[72.85952299833305,19.213628950151254],[72.85950690507897,19.212934960138583],[72.86359995603571,19.213203438374165],[72.86790221929557,19.214221625434117],[72.86764472723016,19.215123298262128],[72.87094384431846,19.215619722764416],[72.8715446591378,19.21599457292573],[72.87149101495751,19.217747239365057],[72.87176996469505,19.22295447332852],[72.87134081125268,19.228374278943292],[72.8716304898263,19.23395598528849],[72.87302523851405,19.236721442833716],[72.87394791841515,19.238180126951335],[72.87448436021813,19.24184703950446],[72.86924332380305,19.242981537293588],[72.8664216399194,19.24355891262177],[72.86624461412438,19.243381648482693],[72.86532193422325,19.24392356967738],[72.86469161510477,19.244290758254888],[72.86391645669946,19.244597170163182],[72.86373406648646,19.244308484579257],[72.86000043153771,19.2468686521723],[72.85912066698084,19.246962346964583],[72.85889536142356,19.24268778415408],[72.85800486803065,19.237805327408203],[72.85768836736686,19.237607797575016],[72.85645455122003,19.238514406903004],[72.85585910081872,19.239679316567365],[72.8559449315072,19.240525137100267],[72.85600930452357,19.24156341383198],[72.8562185168267,19.242981537293588],[72.8569212555886,19.245997541272367],[72.85696148872383,19.24657997058408],[72.85711973905572,19.247410561852565],[72.8569507598878,19.24776001667852],[72.85680323839195,19.247909421050913],[72.85506516695031,19.24739663428972],[72.8550209105016,19.247243431020554],[72.85483181476602,19.24709655833064],[72.85440802574168,19.24706870315051],[72.85413980484017,19.247663790061534],[72.85386621952068,19.24779800085387],[72.85315006971369,19.248380423775163],[72.85270214080819,19.24774482300591],[72.85233199596412,19.246696456198308],[72.85218179225932,19.246577438287154],[72.85210400819787,19.245503740888918],[72.84993946552284,19.245523999395424],[72.85000383853924,19.246980073000362],[72.84977585077294,19.24718012384274],[72.8497704863549,19.24971239190327],[72.84704133868227,19.250328993259313],[72.84596309065826,19.250508782130048],[72.84563720226298,19.24933002193117],[72.8455138206483,19.249322425167747],[72.8416112065316,19.249165425311144],[72.84073680639275,19.24864377954786],[72.8402540087701,19.248861554194388],[72.83842474222193,19.24978835934128],[72.83553868532191,19.2484310691489],[72.82903701066981,19.246263433171094],[72.8276529908181,19.245047923831603],[72.82685905694973,19.243862793557682],[72.82563596963891,19.2394159464099],[72.82545357942591,19.238975306932346],[72.82456845045098,19.238484017844637],[72.82398372888574,19.236546703762865],[72.82387644052515,19.233652086014782],[72.82273918390281,19.233044285780206],[72.81934887170802,19.228435060796183],[72.81710654497154,19.22591259500315]]]}},{"type":"Feature","properties":{"stroke":"#271deb","stroke-width":1.6,"stroke-opacity":0.4,"fill":"#7ebd75","fill-opacity":0.2,"Name":"Anushakti Nagar"},"geometry":{"type":"Polygon","coordinates":[[[72.91359901428223,19.040182486599747],[72.9167640209198,19.036779857160568],[72.91785299777985,19.036140905555307],[72.91817486286163,19.03554759114905],[72.91955351829529,19.03391469782118],[72.92040646076201,19.03256070266877],[72.92096972465514,19.032190507316063],[72.92133450508118,19.031521110884817],[72.92103409767151,19.02873193005114],[72.92253613471985,19.028630504411115],[72.92388260364532,19.028153803073554],[72.92438685894012,19.028057448381688],[72.92625904083252,19.02843779552446],[72.92681694030762,19.02888406839507],[72.92797833681107,19.029571224846013],[72.92854696512222,19.03049926188798],[72.92896270751953,19.031072309494117],[72.92917728424072,19.031105272349375],[72.92955815792084,19.03160732118261],[72.92972445487976,19.031543931262117],[72.92995244264603,19.031528717677595],[72.92999804019928,19.031787348424896],[72.93042719364166,19.032383211849197],[72.93041378259659,19.032601271972315],[72.9306310415268,19.032659590328816],[72.93071687221527,19.032738193298655],[72.93122112751007,19.033498865278414],[72.93116748332977,19.034213893762765],[72.93095827102661,19.03439138262594],[72.93229937553406,19.03656180252401],[72.93494939804076,19.036145976609475],[72.93688595294952,19.03687620679249],[72.93666064739227,19.03793097805421],[72.93733656406403,19.038422864284406],[72.93933749198914,19.038235237749966],[72.94317305088043,19.038719516615725],[72.94378191232681,19.039125194159503],[72.94411148875952,19.039314404362436],[72.94407829642296,19.039345463973124],[72.94402465224266,19.039392687247652],[72.94393714517355,19.039470336226884],[72.94355124235152,19.039781882582524],[72.93935358524323,19.04101918807483],[72.93841950595379,19.041194768076334],[72.93747469782829,19.041384292851507],[72.93062299489975,19.042695113801056],[72.92962789535522,19.0427990662767],[72.92691349983214,19.042839633078817],[72.9239496588707,19.043194592174356],[72.92327105998993,19.04349884222354],[72.92254149913786,19.043432921426877],[72.9187622666359,19.042385791415285],[72.91484892368317,19.040905092667447],[72.91359901428223,19.040182486599747]]]}},{"type":"Feature","properties":{"Name":"A E C S 1"," street_name":""," street_type":""," contact_info":"22-25580530","Website":""," postal_code":400088," up3_admin_name":"Maharashtra","up2_admin_name":"Mumbai Suburban","up1_admin_name":"Mumbai","settlement":"Anushakti Nagar"},"geometry":{"type":"Point","coordinates":[72.919956,19.040322]}},{"type":"Feature","properties":{"Name":"A. E. C. S. 4"," street_name":""," street_type":""," contact_info":"","Website":""," postal_code":400094," up3_admin_name":"Maharashtra","up2_admin_name":"Mumbai Suburban","up1_admin_name":"Mumbai","settlement":"Anushakti Nagar"},"geometry":{"type":"Point","coordinates":[72.928433,19.034775]}},{"type":"Feature","properties":{"Name":"Atomic Energy Central School 2"," street_name":""," street_type":""," contact_info":"22-25580584","Website":""," postal_code":400094," up3_admin_name":"Maharashtra","up2_admin_name":"Mumbai Suburban","up1_admin_name":"Mumbai","settlement":"Anushakti Nagar"},"geometry":{"type":"Point","coordinates":[72.926669,19.036993]}},{"type":"Feature","properties":{"Name":"Atomic Energy Central School No. 3"," street_name":""," street_type":""," contact_info":"","Website":""," postal_code":400094," up3_admin_name":"Maharashtra","up2_admin_name":"Mumbai Suburban","up1_admin_name":"Mumbai","settlement":"Anushakti Nagar"},"geometry":{"type":"Point","coordinates":[72.917623,19.039414]}},{"type":"Feature","properties":{"Name":"Atomic Energy Central School No. 5"," street_name":""," street_type":""," contact_info":"","Website":""," postal_code":400094," up3_admin_name":"Maharashtra","up2_admin_name":"Mumbai Suburban","up1_admin_name":"Mumbai","settlement":"Anushakti Nagar"},"geometry":{"type":"Point","coordinates":[72.933295,19.038503]}},{"type":"Feature","properties":{"Name":"Atomic Energy Central School-4"," street_name":""," street_type":""," contact_info":"","Website":""," postal_code":400094," up3_admin_name":"Maharashtra","up2_admin_name":"Mumbai Suburban","up1_admin_name":"Mumbai","settlement":"Anushakti Nagar"},"geometry":{"type":"Point","coordinates":[72.928524,19.034379]}},{"type":"Feature","properties":{"Name":"Atomic Energy Central School-5"," street_name":""," street_type":""," contact_info":"120-2534528","Website":""," postal_code":400094," up3_admin_name":"Maharashtra","up2_admin_name":"Mumbai Suburban","up1_admin_name":"Mumbai","settlement":"Anushakti Nagar"},"geometry":{"type":"Point","coordinates":[72.933208,19.037474]}},{"type":"Feature","properties":{"Name":"Nutan Vidya Mandir"," street_name":"V N Purav"," street_type":"Marg"," contact_info":"","Website":""," postal_code":400088," up3_admin_name":"Maharashtra","up2_admin_name":"Mumbai Suburban","up1_admin_name":"Mumbai","settlement":"Anushakti Nagar"},"geometry":{"type":"Point","coordinates":[72.931495,19.042461]}},{"type":"Feature","properties":{"stroke":"#beb723","stroke-width":2,"stroke-opacity":1,"fill":"#5b55dd","fill-opacity":0.5,"Name":"Mankurd"},"geometry":{"type":"Polygon","coordinates":[[[72.92326971888542,19.043500743784605],[72.92361170053482,19.043346083414395],[72.92395066469908,19.043193958319513],[72.9243104159832,19.043153391603987],[72.92468056082726,19.043106486326813],[72.9254325851798,19.0430167957937],[72.92593851685524,19.042956262579644],[72.92619399726391,19.042924569788607],[72.92645920068026,19.04289414470354],[72.9269128292799,19.042840266935016],[72.92819559574127,19.042831392947935],[72.92969226837158,19.04279589699487],[72.92997121810915,19.042765471886216],[72.93069005012514,19.042684338235834],[72.93292433023453,19.042262822929683],[72.93515592813492,19.041843208133244],[72.93946623802185,19.04098559332413],[72.94355291873217,19.039783467252228],[72.94393848627806,19.0394687515542],[72.9441124945879,19.039314721297266],[72.94446051120758,19.038754379568573],[72.9457050561905,19.03953023684321],[72.94641852378845,19.039951125220394],[72.94642925262453,19.04073711873055],[72.94666260480881,19.041122507737192],[72.94686377048492,19.041786794582748],[72.94736534357071,19.04247136221491],[72.94429421424867,19.04466703046015],[72.94271841645241,19.045880847291794],[72.940394282341,19.047653701145588],[72.94115602970123,19.04791737746952],[72.94359683990479,19.04791737746952],[72.94330179691316,19.048558819085166],[72.94302821159363,19.04929152999175],[72.9426956176758,19.04961858675691],[72.94300407171251,19.050260021796415],[72.94320791959763,19.050579470733044],[72.94333934783936,19.050665671134386],[72.9437229037285,19.05096737218639],[72.94377654790878,19.051111884260663],[72.94383555650711,19.051702607746723],[72.94389724731445,19.05196120706583],[72.94412791728975,19.052300934970507],[72.94420436024666,19.052480939772394],[72.94416010379791,19.052683761850357],[72.94382214546204,19.053652233853843],[72.94458389282227,19.053941253199298],[72.94453024864198,19.054057874897868],[72.94261515140535,19.058382960854907],[72.93958693742752,19.058770844061154],[72.93920069932938,19.05889506790275],[72.93887883424759,19.05895844737793],[72.93866157531738,19.058920419695717],[72.93789982795715,19.058803801415962],[72.9347026348114,19.058671971957484],[72.9323959350586,19.060193074722523],[72.93058276176453,19.059196753987774],[72.92714953422546,19.05753113572814],[72.92621612548828,19.054727180451977],[72.92778253555298,19.0555232449055],[72.92799174785615,19.05548268120406],[72.92846381664276,19.055644935950312],[72.92950451374055,19.05654240464855],[72.92970836162567,19.056486629899194],[72.93172538280488,19.05619254454707],[72.93228864669801,19.05599479720679],[72.9334419965744,19.055269721608767],[72.93452829122543,19.054400133757227],[72.93526589870453,19.05352547082418],[72.9355099797249,19.053112222674883],[72.93173611164093,19.05213107110513],[72.93126404285431,19.052440375327045],[72.92872667312622,19.051674719560754],[72.92871057987213,19.051487108006206],[72.92839944362642,19.051317243307615],[72.92823851108552,19.0510586429848],[72.9283967614174,19.050663135829097],[72.92839944362642,19.05054144112996],[72.92804002761841,19.050219456808094],[72.92815804481508,19.04946900273501],[72.92832165956499,19.04864375286812],[72.92835250496864,19.04839021905879],[72.92858719825745,19.048034003402226],[72.92367607355118,19.043704844544365],[72.92326971888542,19.043500743784605]]]}},{"type":"Feature","properties":{" poi_name":"Al Fatima Urdu High School"," street_name":"Masjid"," street_type":"Gali"," contact_info":"22-24784641","Website":""," postal_code":400043," up3_admin_name":"Maharashtra","up2_admin_name":"Mumbai Suburban","up1_admin_name":"Mumbai","settlement":"Mankhurd West"},"geometry":{"type":"Point","coordinates":[72.937329,19.052346]}},{"type":"Feature","properties":{" poi_name":"Balwadi Building No 51"," street_name":"Mohite Patil"," street_type":"Road"," contact_info":"","Website":""," postal_code":400043," up3_admin_name":"Maharashtra","up2_admin_name":"Mumbai Suburban","up1_admin_name":"Mumbai","settlement":"Mankhurd West"},"geometry":{"type":"Point","coordinates":[72.931047,19.051868]}},{"type":"Feature","properties":{" poi_name":"Children's Education Societys Prathmik & Madhyamik Vidyalaya"," street_name":"B S Deoshi"," street_type":"Marg"," contact_info":"","Website":""," postal_code":400088," up3_admin_name":"Maharashtra","up2_admin_name":"Mumbai Suburban","up1_admin_name":"Mumbai","settlement":"Mankhurd East"},"geometry":{"type":"Point","coordinates":[72.929595,19.043909]}},{"type":"Feature","properties":{" poi_name":"Good Shepherd English Medium School"," street_name":"Akataa Nagar"," street_type":"Road"," contact_info":"98214-80370","Website":""," postal_code":400043," up3_admin_name":"Maharashtra","up2_admin_name":"Mumbai Suburban","up1_admin_name":"Mumbai","settlement":"Mankhurd West"},"geometry":{"type":"Point","coordinates":[72.938324,19.053198]}},{"type":"Feature","properties":{" poi_name":"K.V.Mankhurd"," street_name":""," street_type":""," contact_info":"22-25552362","Website":"http://kvmankhurd.ac.in/welcome.htm"," postal_code":400088," up3_admin_name":"Maharashtra","up2_admin_name":"Mumbai Suburban","up1_admin_name":"Mumbai","settlement":"Mankhurd East"},"geometry":{"type":"Point","coordinates":[72.938174,19.05003]}},{"type":"Feature","properties":{" poi_name":"Little Angels English High School"," street_name":""," street_type":""," contact_info":"22-32035301","Website":""," postal_code":400043," up3_admin_name":"Maharashtra","up2_admin_name":"Mumbai Suburban","up1_admin_name":"Mumbai","settlement":"Mankhurd West"},"geometry":{"type":"Point","coordinates":[72.938566,19.055553]}},{"type":"Feature","properties":{" poi_name":"Madarsa Arabiya Qasimul Ulum"," street_name":""," street_type":""," contact_info":"","Website":""," postal_code":400043," up3_admin_name":"Maharashtra","up2_admin_name":"Mumbai Suburban","up1_admin_name":"Mumbai","settlement":"Mankhurd West"},"geometry":{"type":"Point","coordinates":[72.929738,19.05625]}},{"type":"Feature","properties":{"marker-color":"#7e7e7e","marker-size":"medium","marker-symbol":""," poi_name":"Madarsa Taleemul Islam"," street_name":""," street_type":""," contact_info":"92226-98731","Website":""," postal_code":400043," up3_admin_name":"Maharashtra","up2_admin_name":"Mumbai Suburban","up1_admin_name":"Mumbai","settlement":"Govandi"},"geometry":{"type":"Point","coordinates":[72.932717,19.053549]}},{"type":"Feature","properties":{" poi_name":"Maharashtra Bal Vikas High School"," street_name":"Masjid"," street_type":"Gali"," contact_info":"22-25518942","Website":""," postal_code":400043," up3_admin_name":"Maharashtra","up2_admin_name":"Mumbai Suburban","up1_admin_name":"Mumbai","settlement":"Mankhurd West"},"geometry":{"type":"Point","coordinates":[72.937329,19.052346]}},{"type":"Feature","properties":{" poi_name":"Maharashtra Balvikas High School"," street_name":""," street_type":""," contact_info":"","Website":""," postal_code":400043," up3_admin_name":"Maharashtra","up2_admin_name":"Mumbai Suburban","up1_admin_name":"Mumbai","settlement":"Mankhurd West"},"geometry":{"type":"Point","coordinates":[72.931707,19.050946]}},{"type":"Feature","properties":{" poi_name":"Maharashtra Vidyalaya"," street_name":""," street_type":""," contact_info":"22-25552362","Website":""," postal_code":400088," up3_admin_name":"Maharashtra","up2_admin_name":"Mumbai Suburban","up1_admin_name":"Mumbai","settlement":"Mankhurd East"},"geometry":{"type":"Point","coordinates":[72.939923,19.047724]}},{"type":"Feature","properties":{" poi_name":"Mahatma Gandhi Memorial English Medium School"," street_name":""," street_type":""," contact_info":"","Website":""," postal_code":400043," up3_admin_name":"Maharashtra","up2_admin_name":"Mumbai Suburban","up1_admin_name":"Mumbai","settlement":"Mankhurd West"},"geometry":{"type":"Point","coordinates":[72.931255,19.050937]}},{"type":"Feature","properties":{" poi_name":"Mahatma Gandhi Memorial High School"," street_name":""," street_type":""," contact_info":"","Website":""," postal_code":400043," up3_admin_name":"Maharashtra","up2_admin_name":"Mumbai Suburban","up1_admin_name":"Mumbai","settlement":"Mankhurd West"},"geometry":{"type":"Point","coordinates":[72.931457,19.050794]}},{"type":"Feature","properties":{"marker-color":"#7e7e7e","marker-size":"medium","marker-symbol":""," poi_name":"Mohite Patil Vidhyalaya"," street_name":"Mohite Nagar"," street_type":"Road"," contact_info":"","Website":""," postal_code":400043," up3_admin_name":"Maharashtra","up2_admin_name":"Mumbai Suburban","up1_admin_name":"Mumbai","settlement":"Govandi"},"geometry":{"type":"Point","coordinates":[72.932393,19.053406]}},{"type":"Feature","properties":{"marker-color":"#7e7e7e","marker-size":"medium","marker-symbol":""," poi_name":"Mohite Patil Vidyalaya"," street_name":""," street_type":""," contact_info":"22-25507922","Website":""," postal_code":400043," up3_admin_name":"Maharashtra","up2_admin_name":"Mumbai Suburban","up1_admin_name":"Mumbai","settlement":"Govandi"},"geometry":{"type":"Point","coordinates":[72.934589,19.053964]}},{"type":"Feature","properties":{" poi_name":"Mother Teresa School"," street_name":""," street_type":""," contact_info":"","Website":""," postal_code":400043," up3_admin_name":"Maharashtra","up2_admin_name":"Mumbai Suburban","up1_admin_name":"Mumbai","settlement":"Mankhurd West"},"geometry":{"type":"Point","coordinates":[72.93048,19.051636]}},{"type":"Feature","properties":{" poi_name":"Padua High School"," street_name":""," street_type":""," contact_info":"","Website":"http://www.stanthonychurchmankhurd.org/our_parish/institutes.html"," postal_code":400088," up3_admin_name":"Maharashtra","up2_admin_name":"Mumbai Suburban","up1_admin_name":"Mumbai","settlement":"Mankhurd East"},"geometry":{"type":"Point","coordinates":[72.928277,19.046324]}},{"type":"Feature","properties":{" poi_name":"Royal Public Academy & Junior College"," street_name":"Masjid"," street_type":"Gali"," contact_info":"","Website":""," postal_code":400043," up3_admin_name":"Maharashtra","up2_admin_name":"Mumbai Suburban","up1_admin_name":"Mumbai","settlement":"Mankhurd West"},"geometry":{"type":"Point","coordinates":[72.937329,19.052346]}},{"type":"Feature","properties":{" poi_name":"Sadguru Night High School & Junior College"," street_name":"B S Deoshi"," street_type":"Marg"," contact_info":"95945-76034","Website":""," postal_code":400088," up3_admin_name":"Maharashtra","up2_admin_name":"Mumbai Suburban","up1_admin_name":"Mumbai","settlement":"Mankhurd East"},"geometry":{"type":"Point","coordinates":[72.929796,19.045258]}},{"type":"Feature","properties":{" poi_name":"Shivaji Rao Bapu Shendge High School"," street_name":""," street_type":""," contact_info":"","Website":""," postal_code":400043," up3_admin_name":"Maharashtra","up2_admin_name":"Mumbai Suburban","up1_admin_name":"Mumbai","settlement":"Mankhurd West"},"geometry":{"type":"Point","coordinates":[72.938355,19.055982]}},{"type":"Feature","properties":{" poi_name":"Shree Ganesh Academy English School"," street_name":""," street_type":""," contact_info":"93235-77675","Website":""," postal_code":400088," up3_admin_name":"Maharashtra","up2_admin_name":"Mumbai Suburban","up1_admin_name":"Mumbai","settlement":"Mankhurd East"},"geometry":{"type":"Point","coordinates":[72.940547,19.047453]}},{"type":"Feature","properties":{"marker-color":"#7e7e7e","marker-size":"medium","marker-symbol":""," poi_name":"Shree Sai Vidhyalay"," street_name":"Mohite Nagar"," street_type":"Road"," contact_info":"","Website":""," postal_code":400043," up3_admin_name":"Maharashtra","up2_admin_name":"Mumbai Suburban","up1_admin_name":"Mumbai","settlement":"Govandi"},"geometry":{"type":"Point","coordinates":[72.932327,19.053618]}},{"type":"Feature","properties":{" poi_name":"Vidya Vikas Vidyalaya"," street_name":""," street_type":""," contact_info":"22-64107102","Website":""," postal_code":400088," up3_admin_name":"Maharashtra","up2_admin_name":"Mumbai Suburban","up1_admin_name":"Mumbai","settlement":"Mankhurd East"},"geometry":{"type":"Point","coordinates":[72.938418,19.049949]}},{"type":"Feature","properties":{" poi_name":"Akash English Medium School"," street_name":""," street_type":""," contact_info":"86528-80413","Website":""," postal_code":400043," up3_admin_name":"Maharashtra","up2_admin_name":"Mumbai Suburban","up1_admin_name":"Mumbai","settlement":"Mankhurd West"},"geometry":{"type":"Point","coordinates":[72.931417,19.051475]}},{"type":"Feature","properties":{" poi_name":"Hidayatul Muslimin Arabiya Madarsa"," street_name":"Station"," street_type":"Road"," contact_info":"","Website":""," postal_code":400088," up3_admin_name":"Maharashtra","up2_admin_name":"Mumbai Suburban","up1_admin_name":"Mumbai","settlement":"Mankhurd East"},"geometry":{"type":"Point","coordinates":[72.93259,19.0494]}},{"type":"Feature","properties":{"marker-color":"#7e7e7e","marker-size":"medium","marker-symbol":""," poi_name":"Kohinoor English Convent"," street_name":"Mohite Nagar"," street_type":"Road"," contact_info":"","Website":""," postal_code":400043," up3_admin_name":"Maharashtra","up2_admin_name":"Mumbai Suburban","up1_admin_name":"Mumbai","settlement":"Govandi"},"geometry":{"type":"Point","coordinates":[72.932437,19.053189]}},{"type":"Feature","properties":{" poi_name":"Madarsa Faizan E Khuaja Garib Nawaz"," street_name":""," street_type":""," contact_info":"","Website":""," postal_code":400088," up3_admin_name":"Maharashtra","up2_admin_name":"Mumbai Suburban","up1_admin_name":"Mumbai","settlement":"Mankhurd East"},"geometry":{"type":"Point","coordinates":[72.942857,19.045656]}},{"type":"Feature","properties":{" poi_name":"Madarsa Masjid Tajul Islam"," street_name":""," street_type":""," contact_info":"","Website":""," postal_code":400088," up3_admin_name":"Maharashtra","up2_admin_name":"Mumbai Suburban","up1_admin_name":"Mumbai","settlement":"Mankhurd East"},"geometry":{"type":"Point","coordinates":[72.942402,19.046033]}},{"type":"Feature","properties":{" poi_name":"Mankhurd Mahanagar Palika Primary School"," street_name":"B S Deoshi"," street_type":"Marg"," contact_info":"22-25510821","Website":""," postal_code":400088," up3_admin_name":"Maharashtra","up2_admin_name":"Mumbai Suburban","up1_admin_name":"Mumbai","settlement":"Mankhurd East"},"geometry":{"type":"Point","coordinates":[72.929796,19.045258]}},{"type":"Feature","properties":{" poi_name":"Padminibai Gaikwad Primary School"," street_name":""," street_type":""," contact_info":"81082-30920","Website":""," postal_code":400088," up3_admin_name":"Maharashtra","up2_admin_name":"Mumbai Suburban","up1_admin_name":"Mumbai","settlement":"Mankhurd East"},"geometry":{"type":"Point","coordinates":[72.938376,19.049878]}},{"type":"Feature","properties":{" poi_name":"Play Learn"," street_name":"Swargiya Annasaheb Patil"," street_type":"Marg"," contact_info":"86553-03018","Website":""," postal_code":400043," up3_admin_name":"Maharashtra","up2_admin_name":"Mumbai Suburban","up1_admin_name":"Mumbai","settlement":"Mankhurd West"},"geometry":{"type":"Point","coordinates":[72.932558,19.050848]}},{"type":"Feature","properties":{" poi_name":"Shree Siddhivinayak English Medium School"," street_name":""," street_type":""," contact_info":"","Website":""," postal_code":400043," up3_admin_name":"Maharashtra","up2_admin_name":"Mumbai Suburban","up1_admin_name":"Mumbai","settlement":"Mankhurd West"},"geometry":{"type":"Point","coordinates":[72.930445,19.051426]}},{"type":"Feature","properties":{" poi_name":"St Alphonsa Play School"," street_name":""," street_type":""," contact_info":"22-25554436","Website":""," postal_code":400088," up3_admin_name":"Maharashtra","up2_admin_name":"Mumbai Suburban","up1_admin_name":"Mumbai","settlement":"Mankhurd East"},"geometry":{"type":"Point","coordinates":[72.929904,19.047128]}},{"type":"Feature","properties":{" poi_name":"Urdu Balwadi"," street_name":"Swargiya Annasaheb Patil"," street_type":"Marg"," contact_info":"","Website":""," postal_code":400043," up3_admin_name":"Maharashtra","up2_admin_name":"Mumbai Suburban","up1_admin_name":"Mumbai","settlement":"Mankhurd West"},"geometry":{"type":"Point","coordinates":[72.93278,19.050933]}},{"type":"Feature","properties":{" poi_name":"Adarsh Night Hindi School"," street_name":"Sevaram Lalwani"," street_type":"Road"," contact_info":"99695-67123","Website":""," postal_code":400080," up3_admin_name":"Maharashtra","up2_admin_name":"Mumbai Suburban","up1_admin_name":"Mumbai","settlement":"Mulund West"},"geometry":{"type":"Point","coordinates":[72.952382,19.17092]}},{"type":"Feature","properties":{"marker-color":"#7e7e7e","marker-size":"medium","marker-symbol":""," poi_name":"BMC Marathi School"," street_name":"Shree Rajaram Sheth Ohal"," street_type":"Marg"," contact_info":"","Website":""," postal_code":400078," up3_admin_name":"Maharashtra","up2_admin_name":"Mumbai Suburban","up1_admin_name":"Mumbai","settlement":"Bhandup West"},"geometry":{"type":"Point","coordinates":[72.93143,19.165615]}},{"type":"Feature","properties":{" poi_name":"BMC Mulund Camp School"," street_name":"Guru Gobind Singh"," street_type":"Marg"," contact_info":"","Website":""," postal_code":400082," up3_admin_name":"Maharashtra","up2_admin_name":"Mumbai Suburban","up1_admin_name":"Mumbai","settlement":"Mulund West"},"geometry":{"type":"Point","coordinates":[72.937129,19.175369]}},{"type":"Feature","properties":{" poi_name":"Bal Vidya Mandir Balwadi"," street_name":""," street_type":""," contact_info":"","Website":""," postal_code":400081," up3_admin_name":"Maharashtra","up2_admin_name":"Mumbai Suburban","up1_admin_name":"Mumbai","settlement":"Mulund East"},"geometry":{"type":"Point","coordinates":[72.96259,19.17613]}},{"type":"Feature","properties":{" poi_name":"Blocks-N-Books"," street_name":"Yogi Hills"," street_type":"Road"," contact_info":"","Website":""," postal_code":400082," up3_admin_name":"Maharashtra","up2_admin_name":"Mumbai Suburban","up1_admin_name":"Mumbai","settlement":"Mulund West"},"geometry":{"type":"Point","coordinates":[72.941715,19.182728]}},{"type":"Feature","properties":{"marker-color":"#7e7e7e","marker-size":"medium","marker-symbol":""," poi_name":"Cambridge High School"," street_name":""," street_type":""," contact_info":"","Website":""," postal_code":400078," up3_admin_name":"Maharashtra","up2_admin_name":"Mumbai Suburban","up1_admin_name":"Mumbai","settlement":"Bhandup West"},"geometry":{"type":"Point","coordinates":[72.92999,19.163489]}},{"type":"Feature","properties":{" poi_name":"Chip & Dale"," street_name":"Chandan Baug"," street_type":"Road"," contact_info":"22-25618219","Website":""," postal_code":400080," up3_admin_name":"Maharashtra","up2_admin_name":"Mumbai Suburban","up1_admin_name":"Mumbai","settlement":"Mulund West"},"geometry":{"type":"Point","coordinates":[72.950234,19.17671]}},{"type":"Feature","properties":{" poi_name":"Chitter Chatter"," street_name":"Shri Raghavendra Swamiji"," street_type":"Marg"," contact_info":"99875-56177","Website":""," postal_code":400080," up3_admin_name":"Maharashtra","up2_admin_name":"Mumbai Suburban","up1_admin_name":"Mumbai","settlement":"Mulund West"},"geometry":{"type":"Point","coordinates":[72.941974,19.16343]}},{"type":"Feature","properties":{" poi_name":"Chubby Cheek's"," street_name":"Pandit Madan Mohan Malviya"," street_type":"Marg"," contact_info":"22-55755304","Website":""," postal_code":400080," up3_admin_name":"Maharashtra","up2_admin_name":"Mumbai Suburban","up1_admin_name":"Mumbai","settlement":"Mulund West"},"geometry":{"type":"Point","coordinates":[72.948348,19.165841]}},